,bureau,adresse,cp,ville,latitude,longitude,result_label,result_score,result_type,result_id,result_housenumber,result_name,result_street,result_postcode,result_city,result_context,result_citycode
0,11,3BIS PLACE DE L'INSURRECTION,94200,IVRY SUR SEINE,48.814074,2.397586,3 B Place de l'Insurrection d'Août 1944 94200 Ivry-sur-Seine,0.67,housenumber,ADRNIVX_0000000354634086,3 B,Place de l'Insurrection d'Août 1944,,94200,Ivry-sur-Seine,"94, Val-de-Marne, Île-de-France",94041
1,13,1 RUE LEIBNITZ,94200,IVRY SUR SEINE,48.818632,2.39909,1 Rue Lénine 94200 Ivry-sur-Seine,0.69,housenumber,ADRNIVX_0000000270896810,1,Rue Lénine,,94200,Ivry-sur-Seine,"94, Val-de-Marne, Île-de-France",94041
2,14,1B RUE BLANQUI,94200,IVRY SUR SEINE,48.811078,2.387416,1 BIS Rue Auguste Blanqui 94200 Ivry-sur-Seine,0.69,housenumber,ADRNIVX_0000000270913530,1 BIS,Rue Auguste Blanqui,,94200,Ivry-sur-Seine,"94, Val-de-Marne, Île-de-France",94041
3,11,1BIS PLACE DE L'INSURRECTION,94200,IVRY SUR SEINE,48.814294,2.398168,1 BIS Place de l'Insurrection d'Août 1944 94200 Ivry-sur-Seine,0.7,housenumber,ADRNIVX_0000000270904523,1 BIS,Place de l'Insurrection d'Août 1944,,94200,Ivry-sur-Seine,"94, Val-de-Marne, Île-de-France",94041
4,11,3B PLACE DE L'INSURRECTION,94200,IVRY SUR SEINE,48.814074,2.397586,3 B Place de l'Insurrection d'Août 1944 94200 Ivry-sur-Seine,0.7,housenumber,ADRNIVX_0000000354634086,3 B,Place de l'Insurrection d'Août 1944,,94200,Ivry-sur-Seine,"94, Val-de-Marne, Île-de-France",94041
5,14,1BIS RUE BLANQUI,94200,IVRY SUR SEINE,48.811078,2.387416,1 BIS Rue Auguste Blanqui 94200 Ivry-sur-Seine,0.71,housenumber,ADRNIVX_0000000270913530,1 BIS,Rue Auguste Blanqui,,94200,Ivry-sur-Seine,"94, Val-de-Marne, Île-de-France",94041
6,14,3BIS RUE BLANQUI,94200,IVRY SUR SEINE,48.810947,2.3872150000000003,3 BIS Rue Auguste Blanqui 94200 Ivry-sur-Seine,0.71,housenumber,ADRNIVX_0000000270913537,3 BIS,Rue Auguste Blanqui,,94200,Ivry-sur-Seine,"94, Val-de-Marne, Île-de-France",94041
7,10,2 PLACE DE L'INSURRECTION,94200,IVRY SUR SEINE,48.814719000000004,2.398243,2 Place de l'Insurrection d'Août 1944 94200 Ivry-sur-Seine,0.73,housenumber,ADRNIVX_0000000270903226,2,Place de l'Insurrection d'Août 1944,,94200,Ivry-sur-Seine,"94, Val-de-Marne, Île-de-France",94041
8,10,4 PLACE DE L'INSURRECTION,94200,IVRY SUR SEINE,48.814605,2.3977009999999996,Place de l'Insurrection d'Août 1944 94200 Ivry-sur-Seine,0.73,street,94041_XXXX_22b777,,Place de l'Insurrection d'Août 1944,,94200,Ivry-sur-Seine,"94, Val-de-Marne, Île-de-France",94041
9,11,1 PLACE DE L'INSURRECTION,94200,IVRY SUR SEINE,48.814422,2.398215,1 Place de l'Insurrection d'Août 1944 94200 Ivry-sur-Seine,0.73,housenumber,ADRNIVX_0000000270904522,1,Place de l'Insurrection d'Août 1944,,94200,Ivry-sur-Seine,"94, Val-de-Marne, Île-de-France",94041
10,11,3 PLACE DE L'INSURRECTION,94200,IVRY SUR SEINE,48.814122999999995,2.397764,3 Place de l'Insurrection d'Août 1944 94200 Ivry-sur-Seine,0.73,housenumber,ADRNIVX_0000000270904526,3,Place de l'Insurrection d'Août 1944,,94200,Ivry-sur-Seine,"94, Val-de-Marne, Île-de-France",94041
11,11,5 PLACE DE L'INSURRECTION,94200,IVRY SUR SEINE,48.814091999999995,2.397461,5 Place de l'Insurrection d'Août 1944 94200 Ivry-sur-Seine,0.73,housenumber,ADRNIVX_0000000270904528,5,Place de l'Insurrection d'Août 1944,,94200,Ivry-sur-Seine,"94, Val-de-Marne, Île-de-France",94041
12,11,7 PLACE DE L'INSURRECTION,94200,IVRY SUR SEINE,48.81419,2.397214,7 Place de l'Insurrection d'Août 1944 94200 Ivry-sur-Seine,0.73,housenumber,ADRNIVX_0000000270904529,7,Place de l'Insurrection d'Août 1944,,94200,Ivry-sur-Seine,"94, Val-de-Marne, Île-de-France",94041
13,29,22 IMPASSE BUESSARD,94200,IVRY SUR SEINE,48.810731,2.375522,Impasse Roger Buessard 94200 Ivry-sur-Seine,0.74,street,94041_0790_75b5a1,,Impasse Roger Buessard,,94200,Ivry-sur-Seine,"94, Val-de-Marne, Île-de-France",94041
14,14,1 RUE BLANQUI,94200,IVRY SUR SEINE,48.811133,2.387566,1 Rue Auguste Blanqui 94200 Ivry-sur-Seine,0.75,housenumber,ADRNIVX_0000000270913529,1,Rue Auguste Blanqui,,94200,Ivry-sur-Seine,"94, Val-de-Marne, Île-de-France",94041
15,14,3 RUE BLANQUI,94200,IVRY SUR SEINE,48.810964,2.387277,3 Rue Auguste Blanqui 94200 Ivry-sur-Seine,0.75,housenumber,ADRNIVX_0000000270913536,3,Rue Auguste Blanqui,,94200,Ivry-sur-Seine,"94, Val-de-Marne, Île-de-France",94041
16,14,4 RUE BLANQUI,94200,IVRY SUR SEINE,48.811040000000006,2.3871849999999997,4 Rue Auguste Blanqui 94200 Ivry-sur-Seine,0.75,housenumber,ADRNIVX_0000000270913538,4,Rue Auguste Blanqui,,94200,Ivry-sur-Seine,"94, Val-de-Marne, Île-de-France",94041
17,14,5 RUE BLANQUI,94200,IVRY SUR SEINE,48.810867,2.3871119999999997,5 Rue Auguste Blanqui 94200 Ivry-sur-Seine,0.75,housenumber,ADRNIVX_0000000270913539,5,Rue Auguste Blanqui,,94200,Ivry-sur-Seine,"94, Val-de-Marne, Île-de-France",94041
18,14,6 RUE BLANQUI,94200,IVRY SUR SEINE,48.810901,2.386947,6 Rue Auguste Blanqui 94200 Ivry-sur-Seine,0.75,housenumber,ADRNIVX_0000000270913540,6,Rue Auguste Blanqui,,94200,Ivry-sur-Seine,"94, Val-de-Marne, Île-de-France",94041
19,14,7 RUE BLANQUI,94200,IVRY SUR SEINE,48.810789,2.386978,7 Rue Auguste Blanqui 94200 Ivry-sur-Seine,0.75,housenumber,ADRNIVX_0000000270913541,7,Rue Auguste Blanqui,,94200,Ivry-sur-Seine,"94, Val-de-Marne, Île-de-France",94041
20,14,8 RUE BLANQUI,94200,IVRY SUR SEINE,48.810831,2.386825,8 Rue Auguste Blanqui 94200 Ivry-sur-Seine,0.75,housenumber,ADRNIVX_0000000270913542,8,Rue Auguste Blanqui,,94200,Ivry-sur-Seine,"94, Val-de-Marne, Île-de-France",94041
21,14,9 RUE BLANQUI,94200,IVRY SUR SEINE,48.810668,2.3867700000000003,9 Rue Auguste Blanqui 94200 Ivry-sur-Seine,0.75,housenumber,ADRNIVX_0000000312901458,9,Rue Auguste Blanqui,,94200,Ivry-sur-Seine,"94, Val-de-Marne, Île-de-France",94041
22,28,37BISB RUE MARCEAU,94200,IVRY SUR SEINE,48.819259,2.379356,Rue Marceau 94200 Ivry-sur-Seine,0.76,street,94041_6115_002fc9,,Rue Marceau,,94200,Ivry-sur-Seine,"94, Val-de-Marne, Île-de-France",94041
23,8,110BIS RUE MOLIERE,94200,IVRY SUR SEINE,48.819628,2.389916,110 B Rue Molière 94200 Ivry-sur-Seine,0.77,housenumber,ADRNIVX_0000000270893683,110 B,Rue Molière,,94200,Ivry-sur-Seine,"94, Val-de-Marne, Île-de-France",94041
24,14,34BIS RUE RASPAIL,94200,IVRY SUR SEINE,48.80924,2.389688,34 B Rue Raspail 94200 Ivry-sur-Seine,0.78,housenumber,ADRNIVX_0000000354634115,34 B,Rue Raspail,,94200,Ivry-sur-Seine,"94, Val-de-Marne, Île-de-France",94041
25,21,24TER RUE VEROLLOT,94200,IVRY SUR SEINE,48.806525,2.368816,Rue Verollot 94200 Ivry-sur-Seine,0.78,street,94041_9621_accd7d,,Rue Verollot,,94200,Ivry-sur-Seine,"94, Val-de-Marne, Île-de-France",94041
26,30,15BIS RUE BARBES,94200,IVRY SUR SEINE,48.817508000000004,2.372906,15 B Rue Barbès 94200 Ivry-sur-Seine,0.78,housenumber,ADRNIVX_0000000357475525,15 B,Rue Barbès,,94200,Ivry-sur-Seine,"94, Val-de-Marne, Île-de-France",94041
27,30,19BIS RUE BARBES,94200,IVRY SUR SEINE,48.81736,2.372507,19 B Rue Barbès 94200 Ivry-sur-Seine,0.78,housenumber,ADRNIVX_0000000357475526,19 B,Rue Barbès,,94200,Ivry-sur-Seine,"94, Val-de-Marne, Île-de-France",94041
28,31,2BIS RUE JEAN-MARIE POULMARCH,94200,IVRY SUR SEINE,48.816783,2.3759080000000004,2 B Rue Jean-Marie Poulmarc'H 94200 Ivry-sur-Seine,0.78,housenumber,ADRNIVX_0000000270898581,2 B,Rue Jean-Marie Poulmarc'H,,94200,Ivry-sur-Seine,"94, Val-de-Marne, Île-de-France",94041
29,34,11BIS RUE MICHELET,94200,IVRY SUR SEINE,48.807999,2.3776029999999997,Rue Michelet 94200 Ivry-sur-Seine,0.78,street,94041_6151_07a92e,,Rue Michelet,,94200,Ivry-sur-Seine,"94, Val-de-Marne, Île-de-France",94041
30,30,1BIS RUE BIZET,94200,IVRY SUR SEINE,48.818102,2.370606,1 B Rue Bizet 94200 Ivry-sur-Seine,0.79,housenumber,ADRNIVX_0000000270896081,1 B,Rue Bizet,,94200,Ivry-sur-Seine,"94, Val-de-Marne, Île-de-France",94041
31,5,100BIS AVENUE MAURICE THOREZ,94200,IVRY SUR SEINE,48.815815,2.377524,Avenue Maurice Thorez 94200 Ivry-sur-Seine,0.8,street,94041_6145_3cd1ac,,Avenue Maurice Thorez,,94200,Ivry-sur-Seine,"94, Val-de-Marne, Île-de-France",94041
32,8,108B RUE MOLIERE,94200,IVRY SUR SEINE,48.819285,2.390037,108 BIS Rue Molière 94200 Ivry-sur-Seine,0.8,housenumber,ADRNIVX_0000000325417337,108 BIS,Rue Molière,,94200,Ivry-sur-Seine,"94, Val-de-Marne, Île-de-France",94041
33,28,29BIS RUE RENE VILLARS,94200,IVRY SUR SEINE,48.818914,2.376315,29 B Rue René Villars 94200 Ivry-sur-Seine,0.8,housenumber,ADRNIVX_0000000332164192,29 B,Rue René Villars,,94200,Ivry-sur-Seine,"94, Val-de-Marne, Île-de-France",94041
34,28,43TER RUE ANTOINE THOMAS,94200,IVRY SUR SEINE,48.818369,2.377558,Rue Antoine Thomas 94200 Ivry-sur-Seine,0.8,street,94041_0050_cb9458,,Rue Antoine Thomas,,94200,Ivry-sur-Seine,"94, Val-de-Marne, Île-de-France",94041
35,29,10BIS RUE ROGER BUESSARD,94200,IVRY SUR SEINE,48.811122999999995,2.375518,10 B Rue Roger Buessard 94200 Ivry-sur-Seine,0.8,housenumber,ADRNIVX_0000000354634118,10 B,Rue Roger Buessard,,94200,Ivry-sur-Seine,"94, Val-de-Marne, Île-de-France",94041
36,29,12 IMPASSE BUESSARD,94200,IVRY SUR SEINE,48.810617,2.375279,12 Impasse Roger Buessard 94200 Ivry-sur-Seine,0.8,housenumber,ADRNIVX_0000000270914931,12,Impasse Roger Buessard,,94200,Ivry-sur-Seine,"94, Val-de-Marne, Île-de-France",94041
37,29,14 IMPASSE BUESSARD,94200,IVRY SUR SEINE,48.810522999999996,2.375083,14 Impasse Roger Buessard 94200 Ivry-sur-Seine,0.8,housenumber,ADRNIVX_0000000270914932,14,Impasse Roger Buessard,,94200,Ivry-sur-Seine,"94, Val-de-Marne, Île-de-France",94041
38,29,16 IMPASSE BUESSARD,94200,IVRY SUR SEINE,48.810489000000004,2.375009,16 Impasse Roger Buessard 94200 Ivry-sur-Seine,0.8,housenumber,ADRNIVX_0000000270914933,16,Impasse Roger Buessard,,94200,Ivry-sur-Seine,"94, Val-de-Marne, Île-de-France",94041
39,29,3 IMPASSE BUESSARD,94200,IVRY SUR SEINE,48.810878,2.375833,3 Impasse Roger Buessard 94200 Ivry-sur-Seine,0.8,housenumber,ADRNIVX_0000000270913639,3,Impasse Roger Buessard,,94200,Ivry-sur-Seine,"94, Val-de-Marne, Île-de-France",94041
40,29,4 IMPASSE BUESSARD,94200,IVRY SUR SEINE,48.810953999999995,2.375997,4 Impasse Roger Buessard 94200 Ivry-sur-Seine,0.8,housenumber,ADRNIVX_0000000270913641,4,Impasse Roger Buessard,,94200,Ivry-sur-Seine,"94, Val-de-Marne, Île-de-France",94041
41,29,7 IMPASSE BUESSARD,94200,IVRY SUR SEINE,48.811121,2.376256,7 Impasse Roger Buessard 94200 Ivry-sur-Seine,0.8,housenumber,ADRNIVX_0000000270913643,7,Impasse Roger Buessard,,94200,Ivry-sur-Seine,"94, Val-de-Marne, Île-de-France",94041
42,2,70BIS AVENUE GEORGES GOSNAT,94200,IVRY SUR SEINE,48.812787,2.386689,Avenue Georges Gosnat 94200 Ivry-sur-Seine,0.81,street,94041_4150_ac7b16,,Avenue Georges Gosnat,,94200,Ivry-sur-Seine,"94, Val-de-Marne, Île-de-France",94041
43,4,15TER TERRASSE JEANNE HACHETTE,94200,IVRY SUR SEINE,48.810877000000005,2.385271,Terrasse Jeanne Hachette 94200 Ivry-sur-Seine,0.81,street,94041_4764_75edee,,Terrasse Jeanne Hachette,,94200,Ivry-sur-Seine,"94, Val-de-Marne, Île-de-France",94041
44,11,35BIS RUE GUSTAVE SIMONET,94200,IVRY SUR SEINE,48.811912,2.394632,35 B Rue Gustave Simonet 94200 Ivry-sur-Seine,0.81,housenumber,ADRNIVX_0000000358881883,35 B,Rue Gustave Simonet,,94200,Ivry-sur-Seine,"94, Val-de-Marne, Île-de-France",94041
45,24,2BIS RUE PAUL MAZY,94200,IVRY SUR SEINE,48.817634999999996,2.384801,Rue Paul Mazy 94200 Ivry-sur-Seine,0.81,street,94041_7140_b47bcb,,Rue Paul Mazy,,94200,Ivry-sur-Seine,"94, Val-de-Marne, Île-de-France",94041
46,24,4BIS RUE PAUL MAZY,94200,IVRY SUR SEINE,48.817634999999996,2.384801,Rue Paul Mazy 94200 Ivry-sur-Seine,0.81,street,94041_7140_b47bcb,,Rue Paul Mazy,,94200,Ivry-sur-Seine,"94, Val-de-Marne, Île-de-France",94041
47,31,50BIS AVENUE MAURICE THOREZ,94200,IVRY SUR SEINE,48.817521,2.375627,50 B Avenue Maurice Thorez 94200 Ivry-sur-Seine,0.81,housenumber,ADRNIVX_0000000357475557,50 B,Avenue Maurice Thorez,,94200,Ivry-sur-Seine,"94, Val-de-Marne, Île-de-France",94041
48,31,50TER AVENUE MAURICE THOREZ,94200,IVRY SUR SEINE,48.817403000000006,2.375736,50 T Avenue Maurice Thorez 94200 Ivry-sur-Seine,0.81,housenumber,ADRNIVX_0000000357475558,50 T,Avenue Maurice Thorez,,94200,Ivry-sur-Seine,"94, Val-de-Marne, Île-de-France",94041
49,35,12BIS RUE GASTON MONMOUSSEAU,94200,IVRY SUR SEINE,48.805159,2.3798340000000002,Rue Gaston Monmousseau 94200 Ivry-sur-Seine,0.81,street,94041_4136_3dafa6,,Rue Gaston Monmousseau,,94200,Ivry-sur-Seine,"94, Val-de-Marne, Île-de-France",94041
50,35,12RUE RUE GASTON MONMOUSSEAU,94200,IVRY SUR SEINE,48.805159,2.3798340000000002,Rue Gaston Monmousseau 94200 Ivry-sur-Seine,0.81,street,94041_4136_3dafa6,,Rue Gaston Monmousseau,,94200,Ivry-sur-Seine,"94, Val-de-Marne, Île-de-France",94041
51,35,14BIS RUE GASTON MONMOUSSEAU,94200,IVRY SUR SEINE,48.805159,2.3798340000000002,Rue Gaston Monmousseau 94200 Ivry-sur-Seine,0.81,street,94041_4136_3dafa6,,Rue Gaston Monmousseau,,94200,Ivry-sur-Seine,"94, Val-de-Marne, Île-de-France",94041
52,36,58BIS AVENUE PIERRE SEMARD,94200,IVRY SUR SEINE,48.819302,2.380338,Avenue Pierre Semard 94200 Ivry-sur-Seine,0.81,street,94041_7170_534f47,,Avenue Pierre Semard,,94200,Ivry-sur-Seine,"94, Val-de-Marne, Île-de-France",94041
53,36,72TER AVENUE PIERRE SEMARD,94200,IVRY SUR SEINE,48.819302,2.380338,Avenue Pierre Semard 94200 Ivry-sur-Seine,0.81,street,94041_7170_534f47,,Avenue Pierre Semard,,94200,Ivry-sur-Seine,"94, Val-de-Marne, Île-de-France",94041
54,1,3BIS RUE LOUIS ROUSSEAU,94200,IVRY SUR SEINE,48.811901,2.383674,3 B Rue Louis Rousseau 94200 Ivry-sur-Seine,0.82,housenumber,ADRNIVX_0000000340217545,3 B,Rue Louis Rousseau,,94200,Ivry-sur-Seine,"94, Val-de-Marne, Île-de-France",94041
55,3,1BIS ALLÉE EDOUARD QUINCEY,94200,IVRY SUR SEINE,48.810023,2.386708,Allée Édouard Quincey 94200 Ivry-sur-Seine,0.82,street,94041_3106_17db27,,Allée Édouard Quincey,,94200,Ivry-sur-Seine,"94, Val-de-Marne, Île-de-France",94041
56,3,23B RUE MARAT,94200,IVRY SUR SEINE,48.810276,2.385539,23 BIS Rue Marat 94200 Ivry-sur-Seine,0.82,housenumber,ADRNIVX_0000000270914852,23 BIS,Rue Marat,,94200,Ivry-sur-Seine,"94, Val-de-Marne, Île-de-France",94041
57,9,1BIS RUE GABRIEL PERI,94200,IVRY SUR SEINE,48.814339000000004,2.38215,Rue Gabriel Péri 94200 Ivry-sur-Seine,0.82,street,94041_4110_1427b3,,Rue Gabriel Péri,,94200,Ivry-sur-Seine,"94, Val-de-Marne, Île-de-France",94041
58,23,18ESC 4 RUE GASTON MONMOUSSEAU,94200,IVRY SUR SEINE,48.80727,2.378404,4 Rue Gaston Monmousseau 94200 Ivry-sur-Seine,0.82,housenumber,ADRNIVX_0000000270923079,4,Rue Gaston Monmousseau,,94200,Ivry-sur-Seine,"94, Val-de-Marne, Île-de-France",94041
59,25,2BIS RUE EUGENE DUCHAUFFOUR,94200,IVRY SUR SEINE,48.810318,2.376865,2 B Rue Eugène Duchauffour 94200 Ivry-sur-Seine,0.82,housenumber,ADRNIVX_0000000270914909,2 B,Rue Eugène Duchauffour,,94200,Ivry-sur-Seine,"94, Val-de-Marne, Île-de-France",94041
60,26,65BIS BOULEVARD HIPPOLYTE MARQUES,94200,IVRY SUR SEINE,48.817665999999996,2.3692130000000002,Boulevard Hippolyte Marques 94200 Ivry-sur-Seine,0.82,street,94041_4440_d3465d,,Boulevard Hippolyte Marques,,94200,Ivry-sur-Seine,"94, Val-de-Marne, Île-de-France",94041
61,30,10B RUE BARBES,94200,IVRY SUR SEINE,48.817640000000004,2.373016,10 BIS Rue Barbès 94200 Ivry-sur-Seine,0.82,housenumber,ADRNIVX_0000000270896969,10 BIS,Rue Barbès,,94200,Ivry-sur-Seine,"94, Val-de-Marne, Île-de-France",94041
62,30,28B RUE BARBES,94200,IVRY SUR SEINE,48.817063,2.371482,28 BIS Rue Barbès 94200 Ivry-sur-Seine,0.82,housenumber,ADRNIVX_0000000270898595,28 BIS,Rue Barbès,,94200,Ivry-sur-Seine,"94, Val-de-Marne, Île-de-France",94041
63,31,2B RUE JEAN-MARIE POULMARCH,94200,IVRY SUR SEINE,48.816783,2.3759080000000004,2 B Rue Jean-Marie Poulmarc'H 94200 Ivry-sur-Seine,0.82,housenumber,ADRNIVX_0000000270898581,2 B,Rue Jean-Marie Poulmarc'H,,94200,Ivry-sur-Seine,"94, Val-de-Marne, Île-de-France",94041
64,32,18BIS RUE JEAN-MARIE POULMARCH,94200,IVRY SUR SEINE,48.816218,2.374155,18 BIS Rue Jean-Marie Poulmarc'H 94200 Ivry-sur-Seine,0.82,housenumber,ADRNIVX_0000000354634091,18 BIS,Rue Jean-Marie Poulmarc'H,,94200,Ivry-sur-Seine,"94, Val-de-Marne, Île-de-France",94041
65,32,18TER RUE JEAN-MARIE POULMARCH,94200,IVRY SUR SEINE,48.816148999999996,2.373923,18 TER Rue Jean-Marie Poulmarc'H 94200 Ivry-sur-Seine,0.82,housenumber,ADRNIVX_0000000270899318,18 TER,Rue Jean-Marie Poulmarc'H,,94200,Ivry-sur-Seine,"94, Val-de-Marne, Île-de-France",94041
66,32,23BIS RUE PIERRE ET MARIE CURIE,94200,IVRY SUR SEINE,48.813765000000004,2.3725389999999997,23 B Rue Pierre et Marie Curie 94200 Ivry-sur-Seine,0.82,housenumber,ADRNIVX_0000000270905883,23 B,Rue Pierre et Marie Curie,,94200,Ivry-sur-Seine,"94, Val-de-Marne, Île-de-France",94041
67,32,25BIS RUE PIERRE ET MARIE CURIE,94200,IVRY SUR SEINE,48.814640999999995,2.374148,Rue Pierre et Marie Curie 94200 Ivry-sur-Seine,0.82,street,94041_7153_417055,,Rue Pierre et Marie Curie,,94200,Ivry-sur-Seine,"94, Val-de-Marne, Île-de-France",94041
68,33,7BIS RUE CELESTINO ALFONSO,94200,IVRY SUR SEINE,48.816331,2.377538,7 B Rue Celestino Alfonso 94200 Ivry-sur-Seine,0.82,housenumber,ADRNIVX_0000000340217560,7 B,Rue Celestino Alfonso,,94200,Ivry-sur-Seine,"94, Val-de-Marne, Île-de-France",94041
69,8,10B ALLÉE CHANTECLAIR,94200,IVRY SUR SEINE,48.819727,2.3903119999999998,10 BIS Allée Chanteclair 94200 Ivry-sur-Seine,0.83,housenumber,ADRNIVX_0000000270893675,10 BIS,Allée Chanteclair,,94200,Ivry-sur-Seine,"94, Val-de-Marne, Île-de-France",94041
70,11,5BIS RUE MAURICE COUDERCHET,94200,IVRY SUR SEINE,48.813673,2.3986099999999997,Rue Maurice Couderchet 94200 Ivry-sur-Seine,0.83,street,94041_6132_395e95,,Rue Maurice Couderchet,,94200,Ivry-sur-Seine,"94, Val-de-Marne, Île-de-France",94041
71,13,16B RUE SAINT-JUST,94200,IVRY SUR SEINE,48.811935999999996,2.3911279999999997,16 BIS Rue Saint-Just 94200 Ivry-sur-Seine,0.83,housenumber,ADRNIVX_0000000270910863,16 BIS,Rue Saint-Just,,94200,Ivry-sur-Seine,"94, Val-de-Marne, Île-de-France",94041
72,14,38B RUE SAINT-JUST,94200,IVRY SUR SEINE,48.810142,2.387771,38 BIS Rue Saint-Just 94200 Ivry-sur-Seine,0.83,housenumber,ADRNIVX_0000000311787725,38 BIS,Rue Saint-Just,,94200,Ivry-sur-Seine,"94, Val-de-Marne, Île-de-France",94041
73,15,3BIS AVENUE DE LA REPUBLIQUE,94200,IVRY SUR SEINE,48.805796,2.39347,3 B Avenue de la République 94200 Ivry-sur-Seine,0.83,housenumber,ADRNIVX_0000000357475562,3 B,Avenue de la République,,94200,Ivry-sur-Seine,"94, Val-de-Marne, Île-de-France",94041
74,15,5BIS AVENUE DE LA REPUBLIQUE,94200,IVRY SUR SEINE,48.8043,2.395273,5 B Avenue de la République 94200 Ivry-sur-Seine,0.83,housenumber,ADRNIVX_0000000357475563,5 B,Avenue de la République,,94200,Ivry-sur-Seine,"94, Val-de-Marne, Île-de-France",94041
75,28,54B RUE MIRABEAU,94200,IVRY SUR SEINE,48.819226,2.377837,54 BIS Rue Mirabeau 94200 Ivry-sur-Seine,0.83,housenumber,ADRNIVX_0000000270894425,54 BIS,Rue Mirabeau,,94200,Ivry-sur-Seine,"94, Val-de-Marne, Île-de-France",94041
76,28,57B RUE MIRABEAU,94200,IVRY SUR SEINE,48.818777000000004,2.377938,57 BIS Rue Mirabeau 94200 Ivry-sur-Seine,0.83,housenumber,ADRNIVX_0000000354634129,57 BIS,Rue Mirabeau,,94200,Ivry-sur-Seine,"94, Val-de-Marne, Île-de-France",94041
77,31,105B AVENUE MAURICE THOREZ,94200,IVRY SUR SEINE,48.816461,2.376895,105 BIS Avenue Maurice Thorez 94200 Ivry-sur-Seine,0.83,housenumber,ADRNIVX_0000000270899301,105 BIS,Avenue Maurice Thorez,,94200,Ivry-sur-Seine,"94, Val-de-Marne, Île-de-France",94041
78,34,182B BOULEVARD DE STALINGRAD,94200,IVRY SUR SEINE,48.806492999999996,2.375742,182 BIS Boulevard de Stalingrad 94200 Ivry-sur-Seine,0.83,housenumber,ADRNIVX_0000000270925728,182 BIS,Boulevard de Stalingrad,,94200,Ivry-sur-Seine,"94, Val-de-Marne, Île-de-France",94041
79,36,1BIS AVENUE PIERRE SEMARD,94200,IVRY SUR SEINE,48.819302,2.380338,Avenue Pierre Semard 94200 Ivry-sur-Seine,0.83,street,94041_7170_534f47,,Avenue Pierre Semard,,94200,Ivry-sur-Seine,"94, Val-de-Marne, Île-de-France",94041
80,6,66 RUE MARAT,94200,IVRY SUR SEINE,48.808574,2.387995,Rue Marat 94200 Ivry-sur-Seine,0.84,street,94041_6114_dc2d12,,Rue Marat,,94200,Ivry-sur-Seine,"94, Val-de-Marne, Île-de-France",94041
81,8,4BIS RUE JEAN JACQUES ROUSSEAU,94200,IVRY SUR SEINE,48.817782,2.394217,Rue Jean-Jacques Rousseau 94200 Ivry-sur-Seine,0.84,street,94041_4740_b8df44,,Rue Jean-Jacques Rousseau,,94200,Ivry-sur-Seine,"94, Val-de-Marne, Île-de-France",94041
82,25,27B RUE GASTON PICARD,94200,IVRY SUR SEINE,48.810071,2.3751849999999997,27 BIS Rue Gaston Picard 94200 Ivry-sur-Seine,0.84,housenumber,ADRNIVX_0000000270916016,27 BIS,Rue Gaston Picard,,94200,Ivry-sur-Seine,"94, Val-de-Marne, Île-de-France",94041
83,25,33 RUE CARNOT,94200,IVRY SUR SEINE,48.80842,2.3708560000000003,Rue Carnot 94200 Ivry-sur-Seine,0.84,street,94041_1411_d859c8,,Rue Carnot,,94200,Ivry-sur-Seine,"94, Val-de-Marne, Île-de-France",94041
84,26,2BIS AVENUE DU CIMETIERE PARISIEN,94200,IVRY SUR SEINE,48.814285,2.365072,2 B Avenue du Cimetière Parisien 94200 Ivry-sur-Seine,0.84,housenumber,ADRNIVX_0000000357475527,2 B,Avenue du Cimetière Parisien,,94200,Ivry-sur-Seine,"94, Val-de-Marne, Île-de-France",94041
85,26,2TER AVENUE DU CIMETIERE PARISIEN,94200,IVRY SUR SEINE,48.814375,2.365015,2 T Avenue du Cimetière Parisien 94200 Ivry-sur-Seine,0.84,housenumber,ADRNIVX_0000000357475528,2 T,Avenue du Cimetière Parisien,,94200,Ivry-sur-Seine,"94, Val-de-Marne, Île-de-France",94041
86,27,188 RUE MARCEL HARTMANN,94200,IVRY SUR SEINE,48.807093,2.384954,Rue Marcel Hartmann 94200 Ivry-sur-Seine,0.84,street,94041_6118_10e815,,Rue Marcel Hartmann,,94200,Ivry-sur-Seine,"94, Val-de-Marne, Île-de-France",94041
87,28,44B RUE ANTOINE THOMAS,94200,IVRY SUR SEINE,48.819163,2.3771400000000003,44 BIS Rue Antoine Thomas 94200 Ivry-sur-Seine,0.84,housenumber,ADRNIVX_0000000325417264,44 BIS,Rue Antoine Thomas,,94200,Ivry-sur-Seine,"94, Val-de-Marne, Île-de-France",94041
88,29,45 RUE HOCHE,94200,IVRY SUR SEINE,48.811448999999996,2.376617,Rue Hoche 94200 Ivry-sur-Seine,0.84,street,94041_4451_34dcb8,,Rue Hoche,,94200,Ivry-sur-Seine,"94, Val-de-Marne, Île-de-France",94041
89,33,18B RUE PIERRE MOULIE,94200,IVRY SUR SEINE,48.816733,2.380709,Rue Pierre Moulie 94200 Ivry-sur-Seine,0.84,street,94041_7165_454217,,Rue Pierre Moulie,,94200,Ivry-sur-Seine,"94, Val-de-Marne, Île-de-France",94041
90,34,92B AVENUE DE VERDUN,94200,IVRY SUR SEINE,48.807177,2.374645,92 BIS Avenue de Verdun 94200 Ivry-sur-Seine,0.84,housenumber,ADRNIVX_0000000270923104,92 BIS,Avenue de Verdun,,94200,Ivry-sur-Seine,"94, Val-de-Marne, Île-de-France",94041
91,1,97B AVENUE GEORGES GOSNAT,94200,IVRY SUR SEINE,48.81162,2.385043,97 BIS Avenue Georges Gosnat 94200 Ivry-sur-Seine,0.85,housenumber,ADRNIVX_0000000270910892,97 BIS,Avenue Georges Gosnat,,94200,Ivry-sur-Seine,"94, Val-de-Marne, Île-de-France",94041
92,2,75B AVENUE DANIELLE CASANOVA,94200,IVRY SUR SEINE,48.814187,2.384616,75 BIS Avenue Danielle Casanova 94200 Ivry-sur-Seine,0.85,housenumber,ADRNIVX_0000000270903268,75 BIS,Avenue Danielle Casanova,,94200,Ivry-sur-Seine,"94, Val-de-Marne, Île-de-France",94041
93,3,23BIS RUE MARAT,94200,IVRY SUR SEINE,48.810276,2.385539,23 BIS Rue Marat 94200 Ivry-sur-Seine,0.85,housenumber,ADRNIVX_0000000270914852,23 BIS,Rue Marat,,94200,Ivry-sur-Seine,"94, Val-de-Marne, Île-de-France",94041
94,3,27BIS RUE MARAT,94200,IVRY SUR SEINE,48.810044,2.385647,27 BIS Rue Marat 94200 Ivry-sur-Seine,0.85,housenumber,ADRNIVX_0000000270915958,27 BIS,Rue Marat,,94200,Ivry-sur-Seine,"94, Val-de-Marne, Île-de-France",94041
95,3,27TER RUE MARAT,94200,IVRY SUR SEINE,48.809946000000004,2.385806,27 TER Rue Marat 94200 Ivry-sur-Seine,0.85,housenumber,ADRNIVX_0000000270915959,27 TER,Rue Marat,,94200,Ivry-sur-Seine,"94, Val-de-Marne, Île-de-France",94041
96,6,12BIS RUE KLEBER,94200,IVRY SUR SEINE,48.806694,2.3900650000000003,12 BIS Rue Kléber 94200 Ivry-sur-Seine,0.85,housenumber,ADRNIVX_0000000270924384,12 BIS,Rue Kléber,,94200,Ivry-sur-Seine,"94, Val-de-Marne, Île-de-France",94041
97,6,2BIS RUE KLEBER,94200,IVRY SUR SEINE,48.807373999999996,2.389268,2 BIS Rue Kléber 94200 Ivry-sur-Seine,0.85,housenumber,ADRNIVX_0000000340217542,2 BIS,Rue Kléber,,94200,Ivry-sur-Seine,"94, Val-de-Marne, Île-de-France",94041
98,6,2TER RUE KLEBER,94200,IVRY SUR SEINE,48.807266,2.389408,2 TER Rue Kléber 94200 Ivry-sur-Seine,0.85,housenumber,ADRNIVX_0000000270923046,2 TER,Rue Kléber,,94200,Ivry-sur-Seine,"94, Val-de-Marne, Île-de-France",94041
99,6,3BIS RUE KLEBER,94200,IVRY SUR SEINE,48.80737,2.389411,3 BIS Rue Kléber 94200 Ivry-sur-Seine,0.85,housenumber,ADRNIVX_0000000270923048,3 BIS,Rue Kléber,,94200,Ivry-sur-Seine,"94, Val-de-Marne, Île-de-France",94041
100,6,66BIS RUE MARAT,94200,IVRY SUR SEINE,48.807621999999995,2.389462,66 BIS Rue Marat 94200 Ivry-sur-Seine,0.85,housenumber,ADRNIVX_0000000270921623,66 BIS,Rue Marat,,94200,Ivry-sur-Seine,"94, Val-de-Marne, Île-de-France",94041
101,6,6BIS RUE KLEBER,94200,IVRY SUR SEINE,48.80703,2.389669,6 BIS Rue Kléber 94200 Ivry-sur-Seine,0.85,housenumber,ADRNIVX_0000000270924376,6 BIS,Rue Kléber,,94200,Ivry-sur-Seine,"94, Val-de-Marne, Île-de-France",94041
102,6,81 85 RUE MARAT,94200,IVRY SUR SEINE,48.807641,2.3898349999999997,85 Rue Marat 94200 Ivry-sur-Seine,0.85,housenumber,ADRNIVX_0000000270921618,85,Rue Marat,,94200,Ivry-sur-Seine,"94, Val-de-Marne, Île-de-France",94041
103,6,9BIS RUE KLEBER,94200,IVRY SUR SEINE,48.806726,2.390174,9 BIS Rue Kléber 94200 Ivry-sur-Seine,0.85,housenumber,ADRNIVX_0000000270924381,9 BIS,Rue Kléber,,94200,Ivry-sur-Seine,"94, Val-de-Marne, Île-de-France",94041
104,7,15BIS RUE LENINE,94200,IVRY SUR SEINE,48.817446999999994,2.396891,15 BIS Rue Lénine 94200 Ivry-sur-Seine,0.85,housenumber,ADRNIVX_0000000270897615,15 BIS,Rue Lénine,,94200,Ivry-sur-Seine,"94, Val-de-Marne, Île-de-France",94041
105,8,12 ALLÉE CHANTECLAIR,94200,IVRY SUR SEINE,48.819657,2.390567,Allée Chanteclair 94200 Ivry-sur-Seine,0.85,street,94041_1424_7468c7,,Allée Chanteclair,,94200,Ivry-sur-Seine,"94, Val-de-Marne, Île-de-France",94041
106,8,14B RUE JEAN JACQUES ROUSSEAU,94200,IVRY SUR SEINE,48.819037,2.392766,14 BIS Rue Jean-Jacques Rousseau 94200 Ivry-sur-Seine,0.85,housenumber,ADRNIVX_0000000270895212,14 BIS,Rue Jean-Jacques Rousseau,,94200,Ivry-sur-Seine,"94, Val-de-Marne, Île-de-France",94041
107,8,15B RUE JEAN JACQUES ROUSSEAU,94200,IVRY SUR SEINE,48.818967,2.393045,15 BIS Rue Jean-Jacques Rousseau 94200 Ivry-sur-Seine,0.85,housenumber,ADRNIVX_0000000270895205,15 BIS,Rue Jean-Jacques Rousseau,,94200,Ivry-sur-Seine,"94, Val-de-Marne, Île-de-France",94041
108,8,17B RUE JEAN JACQUES ROUSSEAU,94200,IVRY SUR SEINE,48.818729,2.393291,17 BIS Rue Jean-Jacques Rousseau 94200 Ivry-sur-Seine,0.85,housenumber,ADRNIVX_0000000270895206,17 BIS,Rue Jean-Jacques Rousseau,,94200,Ivry-sur-Seine,"94, Val-de-Marne, Île-de-France",94041
109,9,5BIS RUE VOLTAIRE,94200,IVRY SUR SEINE,48.812115000000006,2.384219,5 BIS Rue Voltaire 94200 Ivry-sur-Seine,0.85,housenumber,ADRNIVX_0000000270909744,5 BIS,Rue Voltaire,,94200,Ivry-sur-Seine,"94, Val-de-Marne, Île-de-France",94041
110,10,18 RUE DE L'AVENIR,94200,IVRY SUR SEINE,48.817787,2.399189,Rue de l'Avenir 94200 Ivry-sur-Seine,0.85,street,94041_0081_599b61,,Rue de l'Avenir,,94200,Ivry-sur-Seine,"94, Val-de-Marne, Île-de-France",94041
111,13,17 RUE DESCARTES,94200,IVRY SUR SEINE,48.81255,2.390071,Rue Descartes 94200 Ivry-sur-Seine,0.85,street,94041_2535_05407f,,Rue Descartes,,94200,Ivry-sur-Seine,"94, Val-de-Marne, Île-de-France",94041
112,15,10B AVENUE DE LA REPUBLIQUE,94200,IVRY SUR SEINE,48.806518,2.392408,10 BIS Avenue de la République 94200 Ivry-sur-Seine,0.85,housenumber,ADRNIVX_0000000270925644,10 BIS,Avenue de la République,,94200,Ivry-sur-Seine,"94, Val-de-Marne, Île-de-France",94041
113,21,15 IMPASSE DE GOURNAY,94200,IVRY SUR SEINE,48.805153000000004,2.3727560000000003,Impasse de Gournay 94200 Ivry-sur-Seine,0.85,street,94041_4185_502040,,Impasse de Gournay,,94200,Ivry-sur-Seine,"94, Val-de-Marne, Île-de-France",94041
114,21,24 IMPASSE VEROLLOT,94200,IVRY SUR SEINE,48.807089000000005,2.368922,Impasse Verollot 94200 Ivry-sur-Seine,0.85,street,94041_9620_030ad6,,Impasse Verollot,,94200,Ivry-sur-Seine,"94, Val-de-Marne, Île-de-France",94041
115,21,48B RUE VEROLLOT,94200,IVRY SUR SEINE,48.807101,2.368219,48 B Rue Verollot 94200 Ivry-sur-Seine,0.85,housenumber,ADRNIVX_0000000340217097,48 B,Rue Verollot,,94200,Ivry-sur-Seine,"94, Val-de-Marne, Île-de-France",94041
116,25,11BIS RUE CARNOT,94200,IVRY SUR SEINE,48.808375,2.371971,11 BIS Rue Carnot 94200 Ivry-sur-Seine,0.85,housenumber,ADRNIVX_0000000270920409,11 BIS,Rue Carnot,,94200,Ivry-sur-Seine,"94, Val-de-Marne, Île-de-France",94041
117,25,17BIS RUE CARNOT,94200,IVRY SUR SEINE,48.808152,2.371414,17 BIS Rue Carnot 94200 Ivry-sur-Seine,0.85,housenumber,ADRNIVX_0000000270920413,17 BIS,Rue Carnot,,94200,Ivry-sur-Seine,"94, Val-de-Marne, Île-de-France",94041
118,26,12BIS RUE MOZART,94200,IVRY SUR SEINE,48.817157,2.36959,12 BIS Rue Mozart 94200 Ivry-sur-Seine,0.85,housenumber,ADRNIVX_0000000270897776,12 BIS,Rue Mozart,,94200,Ivry-sur-Seine,"94, Val-de-Marne, Île-de-France",94041
119,27,29 RUE LUCIEN NADAIRE,94200,IVRY SUR SEINE,48.802023999999996,2.393898,Rue Lucien Nadaire 94200 Ivry-sur-Seine,0.85,street,94041_5178_d70a4d,,Rue Lucien Nadaire,,94200,Ivry-sur-Seine,"94, Val-de-Marne, Île-de-France",94041
120,30,16B AVENUE MAURICE THOREZ,94200,IVRY SUR SEINE,48.815815,2.377524,Avenue Maurice Thorez 94200 Ivry-sur-Seine,0.85,street,94041_6145_3cd1ac,,Avenue Maurice Thorez,,94200,Ivry-sur-Seine,"94, Val-de-Marne, Île-de-France",94041
121,31,1B RUE BARBES,94200,IVRY SUR SEINE,48.818068,2.374421,1 BIS Rue Barbès 94200 Ivry-sur-Seine,0.85,housenumber,ADRNIVX_0000000270896959,1 BIS,Rue Barbès,,94200,Ivry-sur-Seine,"94, Val-de-Marne, Île-de-France",94041
122,31,1BIS RUE BARBES,94200,IVRY SUR SEINE,48.818068,2.374421,1 BIS Rue Barbès 94200 Ivry-sur-Seine,0.85,housenumber,ADRNIVX_0000000270896959,1 BIS,Rue Barbès,,94200,Ivry-sur-Seine,"94, Val-de-Marne, Île-de-France",94041
123,31,52B AVENUE MAURICE THOREZ,94200,IVRY SUR SEINE,48.817357,2.375731,52 BIS Avenue Maurice Thorez 94200 Ivry-sur-Seine,0.85,housenumber,ADRNIVX_0000000354634100,52 BIS,Avenue Maurice Thorez,,94200,Ivry-sur-Seine,"94, Val-de-Marne, Île-de-France",94041
124,31,66B AVENUE MAURICE THOREZ,94200,IVRY SUR SEINE,48.815847999999995,2.377195,66 BIS Avenue Maurice Thorez 94200 Ivry-sur-Seine,0.85,housenumber,ADRNIVX_0000000340217547,66 BIS,Avenue Maurice Thorez,,94200,Ivry-sur-Seine,"94, Val-de-Marne, Île-de-France",94041
125,32,13B RUE PIERRE ET MARIE CURIE,94200,IVRY SUR SEINE,48.814173,2.37344,13 BIS Rue Pierre et Marie Curie 94200 Ivry-sur-Seine,0.85,housenumber,ADRNIVX_0000000340217090,13 BIS,Rue Pierre et Marie Curie,,94200,Ivry-sur-Seine,"94, Val-de-Marne, Île-de-France",94041
126,32,57 RUE BARBES,94200,IVRY SUR SEINE,48.817107,2.3715029999999997,Rue Barbès 94200 Ivry-sur-Seine,0.85,street,94041_0610_f07f02,,Rue Barbès,,94200,Ivry-sur-Seine,"94, Val-de-Marne, Île-de-France",94041
127,35,12A RUE GASTON MONMOUSSEAU,94200,IVRY SUR SEINE,48.805159,2.3798340000000002,Rue Gaston Monmousseau 94200 Ivry-sur-Seine,0.85,street,94041_4136_3dafa6,,Rue Gaston Monmousseau,,94200,Ivry-sur-Seine,"94, Val-de-Marne, Île-de-France",94041
128,35,12B RUE GASTON MONMOUSSEAU,94200,IVRY SUR SEINE,48.805159,2.3798340000000002,Rue Gaston Monmousseau 94200 Ivry-sur-Seine,0.85,street,94041_4136_3dafa6,,Rue Gaston Monmousseau,,94200,Ivry-sur-Seine,"94, Val-de-Marne, Île-de-France",94041
129,35,130 BOULEVARD DE STALINGRAD,94200,IVRY SUR SEINE,48.804790999999994,2.377291,Boulevard de Stalingrad 94200 Ivry-sur-Seine,0.85,street,94041_XXXX_1a588d,,Boulevard de Stalingrad,,94200,Ivry-sur-Seine,"94, Val-de-Marne, Île-de-France",94041
130,35,14C RUE GASTON MONMOUSSEAU,94200,IVRY SUR SEINE,48.805159,2.3798340000000002,Rue Gaston Monmousseau 94200 Ivry-sur-Seine,0.85,street,94041_4136_3dafa6,,Rue Gaston Monmousseau,,94200,Ivry-sur-Seine,"94, Val-de-Marne, Île-de-France",94041
131,35,14D RUE GASTON MONMOUSSEAU,94200,IVRY SUR SEINE,48.805159,2.3798340000000002,Rue Gaston Monmousseau 94200 Ivry-sur-Seine,0.85,street,94041_4136_3dafa6,,Rue Gaston Monmousseau,,94200,Ivry-sur-Seine,"94, Val-de-Marne, Île-de-France",94041
132,35,16E RUE GASTON MONMOUSSEAU,94200,IVRY SUR SEINE,48.805159,2.3798340000000002,Rue Gaston Monmousseau 94200 Ivry-sur-Seine,0.85,street,94041_4136_3dafa6,,Rue Gaston Monmousseau,,94200,Ivry-sur-Seine,"94, Val-de-Marne, Île-de-France",94041
133,35,16F RUE GASTON MONMOUSSEAU,94200,IVRY SUR SEINE,48.805159,2.3798340000000002,Rue Gaston Monmousseau 94200 Ivry-sur-Seine,0.85,street,94041_4136_3dafa6,,Rue Gaston Monmousseau,,94200,Ivry-sur-Seine,"94, Val-de-Marne, Île-de-France",94041
134,36,23B AVENUE PIERRE SEMARD,94200,IVRY SUR SEINE,48.818699,2.380894,23 BIS Avenue Pierre Semard 94200 Ivry-sur-Seine,0.85,housenumber,ADRNIVX_0000000270895233,23 BIS,Avenue Pierre Semard,,94200,Ivry-sur-Seine,"94, Val-de-Marne, Île-de-France",94041
135,1,19 PROMENEE DES TERRASSES,94200,IVRY SUR SEINE,48.811558000000005,2.385961,Promenée des Terrasses 94200 Ivry-sur-Seine,0.86,street,94041_XXXX_28901a,,Promenée des Terrasses,,94200,Ivry-sur-Seine,"94, Val-de-Marne, Île-de-France",94041
136,1,1B RUE LOUIS ROUSSEAU,94200,IVRY SUR SEINE,48.811674,2.383905,1 BIS Rue Louis Rousseau 94200 Ivry-sur-Seine,0.86,housenumber,ADRNIVX_0000000270912360,1 BIS,Rue Louis Rousseau,,94200,Ivry-sur-Seine,"94, Val-de-Marne, Île-de-France",94041
137,1,1BIS RUE LOUIS ROUSSEAU,94200,IVRY SUR SEINE,48.811674,2.383905,1 BIS Rue Louis Rousseau 94200 Ivry-sur-Seine,0.86,housenumber,ADRNIVX_0000000270912360,1 BIS,Rue Louis Rousseau,,94200,Ivry-sur-Seine,"94, Val-de-Marne, Île-de-France",94041
138,1,6BIS RUE LOUIS ROUSSEAU,94200,IVRY SUR SEINE,48.812115999999996,2.383628,6 BIS Rue Louis Rousseau 94200 Ivry-sur-Seine,0.86,housenumber,ADRNIVX_0000000270910921,6 BIS,Rue Louis Rousseau,,94200,Ivry-sur-Seine,"94, Val-de-Marne, Île-de-France",94041
139,1,6TER RUE LOUIS ROUSSEAU,94200,IVRY SUR SEINE,48.812134,2.383602,6 TER Rue Louis Rousseau 94200 Ivry-sur-Seine,0.86,housenumber,ADRNIVX_0000000270909746,6 TER,Rue Louis Rousseau,,94200,Ivry-sur-Seine,"94, Val-de-Marne, Île-de-France",94041
140,4,14 TERRASSE JEANNE HACHETTE,94200,IVRY SUR SEINE,48.810877000000005,2.385271,Terrasse Jeanne Hachette 94200 Ivry-sur-Seine,0.86,street,94041_4764_75edee,,Terrasse Jeanne Hachette,,94200,Ivry-sur-Seine,"94, Val-de-Marne, Île-de-France",94041
141,4,7BIS SENTIER DES MALICOTS,94200,IVRY SUR SEINE,48.809787,2.384099,7 BIS Sentier des Malicots 94200 Ivry-sur-Seine,0.86,housenumber,ADRNIVX_0000000270917006,7 BIS,Sentier des Malicots,,94200,Ivry-sur-Seine,"94, Val-de-Marne, Île-de-France",94041
142,4,9A RUE ROBESPIERRE,94200,IVRY SUR SEINE,48.808848,2.3862330000000003,9 A Rue Robespierre 94200 Ivry-sur-Seine,0.86,housenumber,ADRNIVX_0000000270919113,9 A,Rue Robespierre,,94200,Ivry-sur-Seine,"94, Val-de-Marne, Île-de-France",94041
143,6,2B RUE DU COLOMBIER,94200,IVRY SUR SEINE,48.808932,2.389424,2 B Rue du Colombier 94200 Ivry-sur-Seine,0.86,housenumber,ADRNIVX_0000000270918025,2 B,Rue du Colombier,,94200,Ivry-sur-Seine,"94, Val-de-Marne, Île-de-France",94041
144,6,45BIS RUE RASPAIL,94200,IVRY SUR SEINE,48.8073,2.3917669999999998,45 BIS Rue Raspail 94200 Ivry-sur-Seine,0.86,housenumber,ADRNIVX_0000000270923016,45 BIS,Rue Raspail,,94200,Ivry-sur-Seine,"94, Val-de-Marne, Île-de-France",94041
145,6,7BIS RUE DU COLOMBIER,94200,IVRY SUR SEINE,48.808153999999995,2.389097,7 BIS Rue du Colombier 94200 Ivry-sur-Seine,0.86,housenumber,ADRNIVX_0000000340217577,7 BIS,Rue du Colombier,,94200,Ivry-sur-Seine,"94, Val-de-Marne, Île-de-France",94041
146,8,108A RUE MOLIERE,94200,IVRY SUR SEINE,48.819419,2.389911,108 A Rue Molière 94200 Ivry-sur-Seine,0.86,housenumber,ADRNIVX_0000000325417336,108 A,Rue Molière,,94200,Ivry-sur-Seine,"94, Val-de-Marne, Île-de-France",94041
147,8,10BIS ALLÉE CHANTECLAIR,94200,IVRY SUR SEINE,48.819727,2.3903119999999998,10 BIS Allée Chanteclair 94200 Ivry-sur-Seine,0.86,housenumber,ADRNIVX_0000000270893675,10 BIS,Allée Chanteclair,,94200,Ivry-sur-Seine,"94, Val-de-Marne, Île-de-France",94041
148,8,110A RUE MOLIERE,94200,IVRY SUR SEINE,48.819548,2.389758,110 A Rue Molière 94200 Ivry-sur-Seine,0.86,housenumber,ADRNIVX_0000000270894408,110 A,Rue Molière,,94200,Ivry-sur-Seine,"94, Val-de-Marne, Île-de-France",94041
149,8,110B RUE MOLIERE,94200,IVRY SUR SEINE,48.819628,2.389916,110 B Rue Molière 94200 Ivry-sur-Seine,0.86,housenumber,ADRNIVX_0000000270893683,110 B,Rue Molière,,94200,Ivry-sur-Seine,"94, Val-de-Marne, Île-de-France",94041
150,8,8BIS ALLÉE CHANTECLAIR,94200,IVRY SUR SEINE,48.819491,2.3906099999999997,8 BIS Allée Chanteclair 94200 Ivry-sur-Seine,0.86,housenumber,ADRNIVX_0000000270893672,8 BIS,Allée Chanteclair,,94200,Ivry-sur-Seine,"94, Val-de-Marne, Île-de-France",94041
151,8,8TER ALLÉE CHANTECLAIR,94200,IVRY SUR SEINE,48.819683000000005,2.390364,8 TER Allée Chanteclair 94200 Ivry-sur-Seine,0.86,housenumber,ADRNIVX_0000000270893673,8 TER,Allée Chanteclair,,94200,Ivry-sur-Seine,"94, Val-de-Marne, Île-de-France",94041
152,10,22 RUE DES PETITS HOTELS,94200,IVRY SUR SEINE,48.815606,2.399295,Rue des Petits Hôtels 94200 Ivry-sur-Seine,0.86,street,94041_7148_9f742c,,Rue des Petits Hôtels,,94200,Ivry-sur-Seine,"94, Val-de-Marne, Île-de-France",94041
153,10,3BIS RUE ERNEST RENAN,94200,IVRY SUR SEINE,48.811769,2.397626,3 BIS Rue Ernest Renan 94200 Ivry-sur-Seine,0.86,housenumber,ADRNIVX_0000000270910839,3 BIS,Rue Ernest Renan,,94200,Ivry-sur-Seine,"94, Val-de-Marne, Île-de-France",94041
154,10,5BIS RUE ERNEST RENAN,94200,IVRY SUR SEINE,48.811621,2.397753,5 BIS Rue Ernest Renan 94200 Ivry-sur-Seine,0.86,housenumber,ADRNIVX_0000000270912233,5 BIS,Rue Ernest Renan,,94200,Ivry-sur-Seine,"94, Val-de-Marne, Île-de-France",94041
155,10,74 AVENUE JEAN JAURES,94200,IVRY SUR SEINE,48.810036,2.40346,Avenue Jean Jaurès 94200 Ivry-sur-Seine,0.86,street,94041_4742_4458cc,,Avenue Jean Jaurès,,94200,Ivry-sur-Seine,"94, Val-de-Marne, Île-de-France",94041
156,11,3B RUE MAURICE COUDERCHET,94200,IVRY SUR SEINE,48.814002,2.398275,3 BIS Rue Maurice Couderchet 94200 Ivry-sur-Seine,0.86,housenumber,ADRNIVX_0000000270905816,3 BIS,Rue Maurice Couderchet,,94200,Ivry-sur-Seine,"94, Val-de-Marne, Île-de-France",94041
157,11,4B RUE DE LA REVOLUTION,94200,IVRY SUR SEINE,48.812915000000004,2.3955040000000003,4 BIS Rue de la Révolution 94200 Ivry-sur-Seine,0.86,housenumber,ADRNIVX_0000000270908345,4 BIS,Rue de la Révolution,,94200,Ivry-sur-Seine,"94, Val-de-Marne, Île-de-France",94041
158,12,9BIS ALLÉE GAGARINE,94200,IVRY SUR SEINE,48.811569,2.3926939999999997,9 BIS Allée Gagarine 94200 Ivry-sur-Seine,0.86,housenumber,ADRNIVX_0000000270912244,9 BIS,Allée Gagarine,,94200,Ivry-sur-Seine,"94, Val-de-Marne, Île-de-France",94041
159,13,16BIS RUE SAINT-JUST,94200,IVRY SUR SEINE,48.811935999999996,2.3911279999999997,16 BIS Rue Saint-Just 94200 Ivry-sur-Seine,0.86,housenumber,ADRNIVX_0000000270910863,16 BIS,Rue Saint-Just,,94200,Ivry-sur-Seine,"94, Val-de-Marne, Île-de-France",94041
160,13,2BIS RUE DESCARTES,94200,IVRY SUR SEINE,48.811932,2.3907220000000002,2 BIS Rue Descartes 94200 Ivry-sur-Seine,0.86,housenumber,ADRNIVX_0000000270910866,2 BIS,Rue Descartes,,94200,Ivry-sur-Seine,"94, Val-de-Marne, Île-de-France",94041
161,14,1BIS AVENUE SPINOZA,94200,IVRY SUR SEINE,48.813046,2.388775,1 BIS Avenue Spinoza 94200 Ivry-sur-Seine,0.86,housenumber,ADRNIVX_0000000270908395,1 BIS,Avenue Spinoza,,94200,Ivry-sur-Seine,"94, Val-de-Marne, Île-de-France",94041
162,14,36BIS RUE SAINT-JUST,94200,IVRY SUR SEINE,48.810241999999995,2.387996,36 BIS Rue Saint-Just 94200 Ivry-sur-Seine,0.86,housenumber,ADRNIVX_0000000270915946,36 BIS,Rue Saint-Just,,94200,Ivry-sur-Seine,"94, Val-de-Marne, Île-de-France",94041
163,14,38BIS RUE SAINT-JUST,94200,IVRY SUR SEINE,48.810142,2.387771,38 BIS Rue Saint-Just 94200 Ivry-sur-Seine,0.86,housenumber,ADRNIVX_0000000311787725,38 BIS,Rue Saint-Just,,94200,Ivry-sur-Seine,"94, Val-de-Marne, Île-de-France",94041
164,14,42BIS RUE SAINT-JUST,94200,IVRY SUR SEINE,48.80962,2.3869740000000004,42 BIS Rue Saint-Just 94200 Ivry-sur-Seine,0.86,housenumber,ADRNIVX_0000000270916992,42 BIS,Rue Saint-Just,,94200,Ivry-sur-Seine,"94, Val-de-Marne, Île-de-France",94041
165,15,7B RUE JEAN BONNEFOIX,94200,IVRY SUR SEINE,48.806342,2.391069,7 BIS Rue Jean Bonnefoix 94200 Ivry-sur-Seine,0.86,housenumber,ADRNIVX_0000000270926972,7 BIS,Rue Jean Bonnefoix,,94200,Ivry-sur-Seine,"94, Val-de-Marne, Île-de-France",94041
166,15,7BIS RUE JEAN BONNEFOIX,94200,IVRY SUR SEINE,48.806342,2.391069,7 BIS Rue Jean Bonnefoix 94200 Ivry-sur-Seine,0.86,housenumber,ADRNIVX_0000000270926972,7 BIS,Rue Jean Bonnefoix,,94200,Ivry-sur-Seine,"94, Val-de-Marne, Île-de-France",94041
167,15,8BIS RUE JEAN BONNEFOIX,94200,IVRY SUR SEINE,48.806090999999995,2.39083,8 BIS Rue Jean Bonnefoix 94200 Ivry-sur-Seine,0.86,housenumber,ADRNIVX_0000000270926973,8 BIS,Rue Jean Bonnefoix,,94200,Ivry-sur-Seine,"94, Val-de-Marne, Île-de-France",94041
168,15,8TER RUE JEAN BONNEFOIX,94200,IVRY SUR SEINE,48.806022,2.390915,8 TER Rue Jean Bonnefoix 94200 Ivry-sur-Seine,0.86,housenumber,ADRNIVX_0000000270926974,8 TER,Rue Jean Bonnefoix,,94200,Ivry-sur-Seine,"94, Val-de-Marne, Île-de-France",94041
169,21,1BIS RUE HENRI MARTIN,94200,IVRY SUR SEINE,48.806655,2.3746099999999997,1 BIS Rue Henri Martin 94200 Ivry-sur-Seine,0.86,housenumber,ADRNIVX_0000000270924451,1 BIS,Rue Henri Martin,,94200,Ivry-sur-Seine,"94, Val-de-Marne, Île-de-France",94041
170,21,24BIS RUE VEROLLOT,94200,IVRY SUR SEINE,48.806458,2.369628,24 BIS Rue Verollot 94200 Ivry-sur-Seine,0.86,housenumber,ADRNIVX_0000000270925752,24 BIS,Rue Verollot,,94200,Ivry-sur-Seine,"94, Val-de-Marne, Île-de-France",94041
171,21,3BIS IMPASSE DE LA PAIX,94200,IVRY SUR SEINE,48.807828,2.36968,3 BIS Impasse de la Paix 94200 Ivry-sur-Seine,0.86,housenumber,ADRNIVX_0000000270921718,3 BIS,Impasse de la Paix,,94200,Ivry-sur-Seine,"94, Val-de-Marne, Île-de-France",94041
172,21,4BIS IMPASSE DES HERBEUSES,94200,IVRY SUR SEINE,48.806664000000005,2.369278,4 BIS Impasse des Herbeuses 94200 Ivry-sur-Seine,0.86,housenumber,ADRNIVX_0000000270924471,4 BIS,Impasse des Herbeuses,,94200,Ivry-sur-Seine,"94, Val-de-Marne, Île-de-France",94041
173,21,7BIS RUE HENRI MARTIN,94200,IVRY SUR SEINE,48.806375,2.373895,7 BIS Rue Henri Martin 94200 Ivry-sur-Seine,0.86,housenumber,ADRNIVX_0000000270925734,7 BIS,Rue Henri Martin,,94200,Ivry-sur-Seine,"94, Val-de-Marne, Île-de-France",94041
174,24,14BIS RUE LEDRU ROLLIN,94200,IVRY SUR SEINE,48.815886,2.383548,14 BIS Rue Ledru-Rollin 94200 Ivry-sur-Seine,0.86,housenumber,ADRNIVX_0000000270900177,14 BIS,Rue Ledru-Rollin,,94200,Ivry-sur-Seine,"94, Val-de-Marne, Île-de-France",94041
175,25,2B RUE EUGENE DUCHAUFFOUR,94200,IVRY SUR SEINE,48.810318,2.376865,2 B Rue Eugène Duchauffour 94200 Ivry-sur-Seine,0.86,housenumber,ADRNIVX_0000000270914909,2 B,Rue Eugène Duchauffour,,94200,Ivry-sur-Seine,"94, Val-de-Marne, Île-de-France",94041
176,25,3BIS RUE DU 19 MARS 1962,94200,IVRY SUR SEINE,48.809336,2.3741779999999997,3 BIS Rue du 19 Mars 1962 94200 Ivry-sur-Seine,0.86,housenumber,ADRNIVX_0000000270917036,3 BIS,Rue du 19 Mars 1962,,94200,Ivry-sur-Seine,"94, Val-de-Marne, Île-de-France",94041
177,25,5B RUE ALEXIS CHAUSSINAND,94200,IVRY SUR SEINE,48.8093,2.37668,5 BIS Rue Alexis Chaussinand 94200 Ivry-sur-Seine,0.86,housenumber,ADRNIVX_0000000270917026,5 BIS,Rue Alexis Chaussinand,,94200,Ivry-sur-Seine,"94, Val-de-Marne, Île-de-France",94041
178,26,3C RUE DE CHATEAUDUN,94200,IVRY SUR SEINE,48.815882,2.36725,3 C Rue de Châteaudun 94200 Ivry-sur-Seine,0.86,housenumber,ADRNIVX_0000000270900263,3 C,Rue de Châteaudun,,94200,Ivry-sur-Seine,"94, Val-de-Marne, Île-de-France",94041
179,26,8A RUE DE CHATEAUDUN,94200,IVRY SUR SEINE,48.815929,2.366932,8 A Rue de Châteaudun 94200 Ivry-sur-Seine,0.86,housenumber,ADRNIVX_0000000270900274,8 A,Rue de Châteaudun,,94200,Ivry-sur-Seine,"94, Val-de-Marne, Île-de-France",94041
180,27,24 RUE DES FRERES BLAIS,94200,IVRY SUR SEINE,48.806314,2.385122,Rue des Frères Blais 94200 Ivry-sur-Seine,0.86,street,94041_3590_bfe0ac,,Rue des Frères Blais,,94200,Ivry-sur-Seine,"94, Val-de-Marne, Île-de-France",94041
181,27,27BIS RUE AMEDEE HUON,94200,IVRY SUR SEINE,48.804593,2.386384,27 BIS Rue Amédée Huon 94200 Ivry-sur-Seine,0.86,housenumber,ADRNIVX_0000000270930729,27 BIS,Rue Amédée Huon,,94200,Ivry-sur-Seine,"94, Val-de-Marne, Île-de-France",94041
182,28,17BIS RUE RENE VILLARS,94200,IVRY SUR SEINE,48.819359000000006,2.376145,17 BIS Rue René Villars 94200 Ivry-sur-Seine,0.86,housenumber,ADRNIVX_0000000270894439,17 BIS,Rue René Villars,,94200,Ivry-sur-Seine,"94, Val-de-Marne, Île-de-France",94041
183,28,1BIS RUE JEAN DORMOY,94200,IVRY SUR SEINE,48.818006,2.379659,1 BIS Rue Jean Dormoy 94200 Ivry-sur-Seine,0.86,housenumber,ADRNIVX_0000000270896893,1 BIS,Rue Jean Dormoy,,94200,Ivry-sur-Seine,"94, Val-de-Marne, Île-de-France",94041
184,28,27 RUE RENE VILLARS,94200,IVRY SUR SEINE,48.819146,2.376218,Rue René Villars 94200 Ivry-sur-Seine,0.86,street,94041_8115_7be440,,Rue René Villars,,94200,Ivry-sur-Seine,"94, Val-de-Marne, Île-de-France",94041
185,28,27BIS RUE MARCEAU,94200,IVRY SUR SEINE,48.818745,2.379397,27 BIS Rue Marceau 94200 Ivry-sur-Seine,0.86,housenumber,ADRNIVX_0000000270895241,27 BIS,Rue Marceau,,94200,Ivry-sur-Seine,"94, Val-de-Marne, Île-de-France",94041
186,28,37BIS RUE MARCEAU,94200,IVRY SUR SEINE,48.819858,2.37892,37 BIS Rue Marceau 94200 Ivry-sur-Seine,0.86,housenumber,ADRNIVX_0000000270893699,37 BIS,Rue Marceau,,94200,Ivry-sur-Seine,"94, Val-de-Marne, Île-de-France",94041
187,28,4BIS RUE JEAN DORMOY,94200,IVRY SUR SEINE,48.818017,2.3795580000000003,4 BIS Rue Jean Dormoy 94200 Ivry-sur-Seine,0.86,housenumber,ADRNIVX_0000000270896896,4 BIS,Rue Jean Dormoy,,94200,Ivry-sur-Seine,"94, Val-de-Marne, Île-de-France",94041
188,28,54BIS RUE MIRABEAU,94200,IVRY SUR SEINE,48.819226,2.377837,54 BIS Rue Mirabeau 94200 Ivry-sur-Seine,0.86,housenumber,ADRNIVX_0000000270894425,54 BIS,Rue Mirabeau,,94200,Ivry-sur-Seine,"94, Val-de-Marne, Île-de-France",94041
189,28,57BIS RUE MIRABEAU,94200,IVRY SUR SEINE,48.818777000000004,2.377938,57 BIS Rue Mirabeau 94200 Ivry-sur-Seine,0.86,housenumber,ADRNIVX_0000000354634129,57 BIS,Rue Mirabeau,,94200,Ivry-sur-Seine,"94, Val-de-Marne, Île-de-France",94041
190,28,93BIS RUE MIRABEAU,94200,IVRY SUR SEINE,48.820036,2.377472,93 BIS Rue Mirabeau 94200 Ivry-sur-Seine,0.86,housenumber,ADRNIVX_0000000270892870,93 BIS,Rue Mirabeau,,94200,Ivry-sur-Seine,"94, Val-de-Marne, Île-de-France",94041
191,29,18BIS PASSAGE HOCHE,94200,IVRY SUR SEINE,48.811623,2.372219,18 BIS Passage Hoche 94200 Ivry-sur-Seine,0.86,housenumber,ADRNIVX_0000000270910975,18 BIS,Passage Hoche,,94200,Ivry-sur-Seine,"94, Val-de-Marne, Île-de-France",94041
192,30,10BIS RUE BARBES,94200,IVRY SUR SEINE,48.817640000000004,2.373016,10 BIS Rue Barbès 94200 Ivry-sur-Seine,0.86,housenumber,ADRNIVX_0000000270896969,10 BIS,Rue Barbès,,94200,Ivry-sur-Seine,"94, Val-de-Marne, Île-de-France",94041
193,30,1B RUE JULES FERRY,94200,IVRY SUR SEINE,48.816926,2.371796,1 BIS Rue Jules Ferry 94200 Ivry-sur-Seine,0.86,housenumber,ADRNIVX_0000000270898600,1 BIS,Rue Jules Ferry,,94200,Ivry-sur-Seine,"94, Val-de-Marne, Île-de-France",94041
194,30,1BIS RUE JULES FERRY,94200,IVRY SUR SEINE,48.816926,2.371796,1 BIS Rue Jules Ferry 94200 Ivry-sur-Seine,0.86,housenumber,ADRNIVX_0000000270898600,1 BIS,Rue Jules Ferry,,94200,Ivry-sur-Seine,"94, Val-de-Marne, Île-de-France",94041
195,30,26BIS RUE BARBES,94200,IVRY SUR SEINE,48.817176,2.371787,26 BIS Rue Barbès 94200 Ivry-sur-Seine,0.86,housenumber,ADRNIVX_0000000270897775,26 BIS,Rue Barbès,,94200,Ivry-sur-Seine,"94, Val-de-Marne, Île-de-France",94041
196,30,28BIS RUE BARBES,94200,IVRY SUR SEINE,48.817063,2.371482,28 BIS Rue Barbès 94200 Ivry-sur-Seine,0.86,housenumber,ADRNIVX_0000000270898595,28 BIS,Rue Barbès,,94200,Ivry-sur-Seine,"94, Val-de-Marne, Île-de-France",94041
197,31,2BIS RUE EDOUARD VASSEUR,94200,IVRY SUR SEINE,48.814703,2.377427,2 BIS Rue Édouard Vasseur 94200 Ivry-sur-Seine,0.86,housenumber,ADRNIVX_0000000270903293,2 BIS,Rue Édouard Vasseur,,94200,Ivry-sur-Seine,"94, Val-de-Marne, Île-de-France",94041
198,31,3BIS RUE EDOUARD VASSEUR,94200,IVRY SUR SEINE,48.81433,2.376843,3 BIS Rue Édouard Vasseur 94200 Ivry-sur-Seine,0.86,housenumber,ADRNIVX_0000000270904630,3 BIS,Rue Édouard Vasseur,,94200,Ivry-sur-Seine,"94, Val-de-Marne, Île-de-France",94041
199,32,3BIS RUE JULES FERRY,94200,IVRY SUR SEINE,48.816666,2.372577,3 BIS Rue Jules Ferry 94200 Ivry-sur-Seine,0.86,housenumber,ADRNIVX_0000000270898592,3 BIS,Rue Jules Ferry,,94200,Ivry-sur-Seine,"94, Val-de-Marne, Île-de-France",94041
200,32,5B RUE JULES FERRY,94200,IVRY SUR SEINE,48.816445,2.372774,5 BIS Rue Jules Ferry 94200 Ivry-sur-Seine,0.86,housenumber,ADRNIVX_0000000270899320,5 BIS,Rue Jules Ferry,,94200,Ivry-sur-Seine,"94, Val-de-Marne, Île-de-France",94041
201,32,5BIS RUE JULES FERRY,94200,IVRY SUR SEINE,48.816445,2.372774,5 BIS Rue Jules Ferry 94200 Ivry-sur-Seine,0.86,housenumber,ADRNIVX_0000000270899320,5 BIS,Rue Jules Ferry,,94200,Ivry-sur-Seine,"94, Val-de-Marne, Île-de-France",94041
202,32,7B RUE JULES FERRY,94200,IVRY SUR SEINE,48.816226,2.37298,7 BIS Rue Jules Ferry 94200 Ivry-sur-Seine,0.86,housenumber,ADRNIVX_0000000270899321,7 BIS,Rue Jules Ferry,,94200,Ivry-sur-Seine,"94, Val-de-Marne, Île-de-France",94041
203,32,7BIS RUE JULES FERRY,94200,IVRY SUR SEINE,48.816226,2.37298,7 BIS Rue Jules Ferry 94200 Ivry-sur-Seine,0.86,housenumber,ADRNIVX_0000000270899321,7 BIS,Rue Jules Ferry,,94200,Ivry-sur-Seine,"94, Val-de-Marne, Île-de-France",94041
204,34,20BIS IMPASSE TELLIER,94200,IVRY SUR SEINE,48.806383000000004,2.377183,20 BIS Impasse Tellier 94200 Ivry-sur-Seine,0.86,housenumber,ADRNIVX_0000000270925720,20 BIS,Impasse Tellier,,94200,Ivry-sur-Seine,"94, Val-de-Marne, Île-de-France",94041
205,34,4B RUE GEORGETTE ROSTAING,94200,IVRY SUR SEINE,48.809305,2.378775,4 BIS Rue Georgette Rostaing 94200 Ivry-sur-Seine,0.86,housenumber,ADRNIVX_0000000270918049,4 BIS,Rue Georgette Rostaing,,94200,Ivry-sur-Seine,"94, Val-de-Marne, Île-de-France",94041
206,35,11BIS RUE MARCEL LAMANT,94200,IVRY SUR SEINE,48.806416,2.3836459999999997,11 BIS Rue Marcel Lamant 94200 Ivry-sur-Seine,0.86,housenumber,ADRNIVX_0000000270925708,11 BIS,Rue Marcel Lamant,,94200,Ivry-sur-Seine,"94, Val-de-Marne, Île-de-France",94041
207,35,124 126 BOULEVARD DE STALINGRAD,94200,IVRY SUR SEINE,48.802572,2.379245,126 Boulevard de Stalingrad 94200 Ivry-sur-Seine,0.86,housenumber,ADRNIVX_0000000270936910,126,Boulevard de Stalingrad,,94200,Ivry-sur-Seine,"94, Val-de-Marne, Île-de-France",94041
208,35,2BIS RUE MARCEL LAMANT,94200,IVRY SUR SEINE,48.807660999999996,2.383746,2 BIS Rue Marcel Lamant 94200 Ivry-sur-Seine,0.86,housenumber,ADRNIVX_0000000270923073,2 BIS,Rue Marcel Lamant,,94200,Ivry-sur-Seine,"94, Val-de-Marne, Île-de-France",94041
209,36,36BIS RUE MARCEAU,94200,IVRY SUR SEINE,48.81925,2.379248,36 BIS Rue Marceau 94200 Ivry-sur-Seine,0.86,housenumber,ADRNIVX_0000000270894421,36 BIS,Rue Marceau,,94200,Ivry-sur-Seine,"94, Val-de-Marne, Île-de-France",94041
210,1,91BIS AVENUE GEORGES GOSNAT,94200,IVRY SUR SEINE,48.811946999999996,2.385682,91 BIS Avenue Georges Gosnat 94200 Ivry-sur-Seine,0.87,housenumber,ADRNIVX_0000000270910890,91 BIS,Avenue Georges Gosnat,,94200,Ivry-sur-Seine,"94, Val-de-Marne, Île-de-France",94041
211,1,97BIS AVENUE GEORGES GOSNAT,94200,IVRY SUR SEINE,48.81162,2.385043,97 BIS Avenue Georges Gosnat 94200 Ivry-sur-Seine,0.87,housenumber,ADRNIVX_0000000270910892,97 BIS,Avenue Georges Gosnat,,94200,Ivry-sur-Seine,"94, Val-de-Marne, Île-de-France",94041
212,4,15BIS RUE PIERRE HONFROY,94200,IVRY SUR SEINE,48.80942,2.382847,15 BIS Rue Pierre Honfroy 94200 Ivry-sur-Seine,0.87,housenumber,ADRNIVX_0000000270917010,15 BIS,Rue Pierre Honfroy,,94200,Ivry-sur-Seine,"94, Val-de-Marne, Île-de-France",94041
213,4,15TER RUE PIERRE HONFROY,94200,IVRY SUR SEINE,48.809365,2.382918,15 TER Rue Pierre Honfroy 94200 Ivry-sur-Seine,0.87,housenumber,ADRNIVX_0000000270918039,15 TER,Rue Pierre Honfroy,,94200,Ivry-sur-Seine,"94, Val-de-Marne, Île-de-France",94041
214,4,17TER RUE PIERRE HONFROY,94200,IVRY SUR SEINE,48.809102,2.3832709999999997,17 TER Rue Pierre Honfroy 94200 Ivry-sur-Seine,0.87,housenumber,ADRNIVX_0000000270918042,17 TER,Rue Pierre Honfroy,,94200,Ivry-sur-Seine,"94, Val-de-Marne, Île-de-France",94041
215,4,19BIS RUE PIERRE HONFROY,94200,IVRY SUR SEINE,48.808928,2.383526,19 BIS Rue Pierre Honfroy 94200 Ivry-sur-Seine,0.87,housenumber,ADRNIVX_0000000270918037,19 BIS,Rue Pierre Honfroy,,94200,Ivry-sur-Seine,"94, Val-de-Marne, Île-de-France",94041
216,5,49BIS RUE JEAN LE GALLEU,94200,IVRY SUR SEINE,48.812273,2.378613,49 BIS Rue Jean le Galleu 94200 Ivry-sur-Seine,0.87,housenumber,ADRNIVX_0000000270909768,49 BIS,Rue Jean le Galleu,,94200,Ivry-sur-Seine,"94, Val-de-Marne, Île-de-France",94041
217,5,96 AVENUE MAURICE THOREZ,94200,IVRY SUR SEINE,48.815815,2.377524,Avenue Maurice Thorez 94200 Ivry-sur-Seine,0.87,street,94041_6145_3cd1ac,,Avenue Maurice Thorez,,94200,Ivry-sur-Seine,"94, Val-de-Marne, Île-de-France",94041
218,7,107 BOULEVARD PAUL VAILLANT COUTURIER,94200,IVRY SUR SEINE,48.817178000000006,2.3990110000000002,Boulevard Paul Vaillant-Couturier 94200 Ivry-sur-Seine,0.87,street,94041_7145_a0d19f,,Boulevard Paul Vaillant-Couturier,,94200,Ivry-sur-Seine,"94, Val-de-Marne, Île-de-France",94041
219,7,12 PLACETTE  DES FAUCONNIERES,94200,IVRY SUR SEINE,48.81774,2.3963240000000003,Placette des Fauconnières 94200 Ivry-sur-Seine,0.87,street,94041_3203_5932b6,,Placette des Fauconnières,,94200,Ivry-sur-Seine,"94, Val-de-Marne, Île-de-France",94041
220,7,96B BOULEVARD PAUL VAILLANT COUTURIER,94200,IVRY SUR SEINE,48.816196999999995,2.40014,96 BIS Boulevard Paul Vaillant-Couturier 94200 Ivry-sur-Seine,0.87,housenumber,ADRNIVX_0000000354634134,96 BIS,Boulevard Paul Vaillant-Couturier,,94200,Ivry-sur-Seine,"94, Val-de-Marne, Île-de-France",94041
221,8,1 QUAI JEAN COMPAGNON,94200,IVRY SUR SEINE,48.820646,2.395593,Quai Jean Compagnon 94200 Ivry-sur-Seine,0.87,street,94041_4730_ca031a,,Quai Jean Compagnon,,94200,Ivry-sur-Seine,"94, Val-de-Marne, Île-de-France",94041
222,9,36BIS RUE GABRIEL PERI,94200,IVRY SUR SEINE,48.813534000000004,2.383142,36 BIS Rue Gabriel Péri 94200 Ivry-sur-Seine,0.87,housenumber,ADRNIVX_0000000270905862,36 BIS,Rue Gabriel Péri,,94200,Ivry-sur-Seine,"94, Val-de-Marne, Île-de-France",94041
223,11,21BIS RUE DE LA REVOLUTION,94200,IVRY SUR SEINE,48.812895000000005,2.394627,21 BIS Rue de la Révolution 94200 Ivry-sur-Seine,0.87,housenumber,ADRNIVX_0000000270908361,21 BIS,Rue de la Révolution,,94200,Ivry-sur-Seine,"94, Val-de-Marne, Île-de-France",94041
224,11,21TER RUE DE LA REVOLUTION,94200,IVRY SUR SEINE,48.812906,2.394487,21 TER Rue de la Révolution 94200 Ivry-sur-Seine,0.87,housenumber,ADRNIVX_0000000270908362,21 TER,Rue de la Révolution,,94200,Ivry-sur-Seine,"94, Val-de-Marne, Île-de-France",94041
225,11,27BIS RUE GUSTAVE SIMONET,94200,IVRY SUR SEINE,48.812098,2.3946099999999997,27 BIS Rue Gustave Simonet 94200 Ivry-sur-Seine,0.87,housenumber,ADRNIVX_0000000270909675,27 BIS,Rue Gustave Simonet,,94200,Ivry-sur-Seine,"94, Val-de-Marne, Île-de-France",94041
226,11,2BIS RUE DE LA REVOLUTION,94200,IVRY SUR SEINE,48.812878999999995,2.3960529999999998,2 BIS Rue de la Révolution 94200 Ivry-sur-Seine,0.87,housenumber,ADRNIVX_0000000270908342,2 BIS,Rue de la Révolution,,94200,Ivry-sur-Seine,"94, Val-de-Marne, Île-de-France",94041
227,11,37BIS RUE GUSTAVE SIMONET,94200,IVRY SUR SEINE,48.812605,2.393986,37 BIS Rue Gustave Simonet 94200 Ivry-sur-Seine,0.87,housenumber,ADRNIVX_0000000270909681,37 BIS,Rue Gustave Simonet,,94200,Ivry-sur-Seine,"94, Val-de-Marne, Île-de-France",94041
228,11,3BIS RUE GUSTAVE SIMONET,94200,IVRY SUR SEINE,48.812651,2.395969,3 BIS Rue Gustave Simonet 94200 Ivry-sur-Seine,0.87,housenumber,ADRNIVX_0000000270909650,3 BIS,Rue Gustave Simonet,,94200,Ivry-sur-Seine,"94, Val-de-Marne, Île-de-France",94041
229,11,4BIS RUE DE LA REVOLUTION,94200,IVRY SUR SEINE,48.812915000000004,2.3955040000000003,4 BIS Rue de la Révolution 94200 Ivry-sur-Seine,0.87,housenumber,ADRNIVX_0000000270908345,4 BIS,Rue de la Révolution,,94200,Ivry-sur-Seine,"94, Val-de-Marne, Île-de-France",94041
230,12,7 ALLÉE GAGARINE,94200,IVRY SUR SEINE,48.81134,2.393098,Allée Gagarine 94200 Ivry-sur-Seine,0.87,street,94041_4112_4265b5,,Allée Gagarine,,94200,Ivry-sur-Seine,"94, Val-de-Marne, Île-de-France",94041
231,13,1 RUE TRUILLOT,94200,IVRY SUR SEINE,48.810294,2.3919919999999997,Rue Truillot 94200 Ivry-sur-Seine,0.87,street,94041_9170_601798,,Rue Truillot,,94200,Ivry-sur-Seine,"94, Val-de-Marne, Île-de-France",94041
232,13,3BIS RUE PIERRE GUIGNOIS,94200,IVRY SUR SEINE,48.812478000000006,2.391434,3 BIS Rue Pierre Guignois 94200 Ivry-sur-Seine,0.87,housenumber,ADRNIVX_0000000270909686,3 BIS,Rue Pierre Guignois,,94200,Ivry-sur-Seine,"94, Val-de-Marne, Île-de-France",94041
233,13,5BIS RUE PIERRE GUIGNOIS,94200,IVRY SUR SEINE,48.812624,2.391292,5 BIS Rue Pierre Guignois 94200 Ivry-sur-Seine,0.87,housenumber,ADRNIVX_0000000270909688,5 BIS,Rue Pierre Guignois,,94200,Ivry-sur-Seine,"94, Val-de-Marne, Île-de-France",94041
234,15,10BIS AVENUE DE LA REPUBLIQUE,94200,IVRY SUR SEINE,48.806518,2.392408,10 BIS Avenue de la République 94200 Ivry-sur-Seine,0.87,housenumber,ADRNIVX_0000000270925644,10 BIS,Avenue de la République,,94200,Ivry-sur-Seine,"94, Val-de-Marne, Île-de-France",94041
235,15,10BIS RUE JEAN BONNEFOIX,94200,IVRY SUR SEINE,48.805921999999995,2.391063,10 BIS Rue Jean Bonnefoix 94200 Ivry-sur-Seine,0.87,housenumber,ADRNIVX_0000000270926970,10 BIS,Rue Jean Bonnefoix,,94200,Ivry-sur-Seine,"94, Val-de-Marne, Île-de-France",94041
236,15,18BIS RUE JEAN TREMOULET,94200,IVRY SUR SEINE,48.802946999999996,2.396045,18 BIS Rue Jean Trémoulet 94200 Ivry-sur-Seine,0.87,housenumber,ADRNIVX_0000000270935680,18 BIS,Rue Jean Trémoulet,,94200,Ivry-sur-Seine,"94, Val-de-Marne, Île-de-France",94041
237,15,22BIS RUE JEAN TREMOULET,94200,IVRY SUR SEINE,48.803196,2.3956,22 BIS Rue Jean Trémoulet 94200 Ivry-sur-Seine,0.87,housenumber,ADRNIVX_0000000270934444,22 BIS,Rue Jean Trémoulet,,94200,Ivry-sur-Seine,"94, Val-de-Marne, Île-de-France",94041
238,15,30BIS RUE JEAN TREMOULET,94200,IVRY SUR SEINE,48.804675,2.39305,30 BIS Rue Jean Trémoulet 94200 Ivry-sur-Seine,0.87,housenumber,ADRNIVX_0000000270930724,30 BIS,Rue Jean Trémoulet,,94200,Ivry-sur-Seine,"94, Val-de-Marne, Île-de-France",94041
239,15,3B AVENUE DE LA REPUBLIQUE,94200,IVRY SUR SEINE,48.805796,2.39347,3 B Avenue de la République 94200 Ivry-sur-Seine,0.87,housenumber,ADRNIVX_0000000357475562,3 B,Avenue de la République,,94200,Ivry-sur-Seine,"94, Val-de-Marne, Île-de-France",94041
240,21,10BIS RUE HENRI MARTIN,94200,IVRY SUR SEINE,48.806544,2.374059,10 BIS Rue Henri Martin 94200 Ivry-sur-Seine,0.87,housenumber,ADRNIVX_0000000270925737,10 BIS,Rue Henri Martin,,94200,Ivry-sur-Seine,"94, Val-de-Marne, Île-de-France",94041
241,21,12TER RUE HENRI MARTIN,94200,IVRY SUR SEINE,48.806369000000004,2.373618,12 TER Rue Henri Martin 94200 Ivry-sur-Seine,0.87,housenumber,ADRNIVX_0000000270925742,12 TER,Rue Henri Martin,,94200,Ivry-sur-Seine,"94, Val-de-Marne, Île-de-France",94041
242,21,13BIS SENTIER DES HERBEUSES,94200,IVRY SUR SEINE,48.807319,2.370894,13 BIS Sentier des Herbeuses 94200 Ivry-sur-Seine,0.87,housenumber,ADRNIVX_0000000270923120,13 BIS,Sentier des Herbeuses,,94200,Ivry-sur-Seine,"94, Val-de-Marne, Île-de-France",94041
243,21,15BIS RUE DU QUARTIER PARISIEN,94200,IVRY SUR SEINE,48.807590999999995,2.372695,15 BIS Rue du Quartier Parisien 94200 Ivry-sur-Seine,0.87,housenumber,ADRNIVX_0000000270921678,15 BIS,Rue du Quartier Parisien,,94200,Ivry-sur-Seine,"94, Val-de-Marne, Île-de-France",94041
244,21,18BIS RUE HENRI MARTIN,94200,IVRY SUR SEINE,48.806146000000005,2.373078,18 BIS Rue Henri Martin 94200 Ivry-sur-Seine,0.87,housenumber,ADRNIVX_0000000270925748,18 BIS,Rue Henri Martin,,94200,Ivry-sur-Seine,"94, Val-de-Marne, Île-de-France",94041
245,21,1BIS SENTIER DES HERBEUSES,94200,IVRY SUR SEINE,48.808029,2.369974,1 BIS Sentier des Herbeuses 94200 Ivry-sur-Seine,0.87,housenumber,ADRNIVX_0000000270920416,1 BIS,Sentier des Herbeuses,,94200,Ivry-sur-Seine,"94, Val-de-Marne, Île-de-France",94041
246,21,2 IMPASSE VEROLLOT,94200,IVRY SUR SEINE,48.807089000000005,2.368922,Impasse Verollot 94200 Ivry-sur-Seine,0.87,street,94041_9620_030ad6,,Impasse Verollot,,94200,Ivry-sur-Seine,"94, Val-de-Marne, Île-de-France",94041
247,21,20BIS RUE HENRI MARTIN,94200,IVRY SUR SEINE,48.806022999999996,2.372774,20 BIS Rue Henri Martin 94200 Ivry-sur-Seine,0.87,housenumber,ADRNIVX_0000000270927048,20 BIS,Rue Henri Martin,,94200,Ivry-sur-Seine,"94, Val-de-Marne, Île-de-France",94041
248,21,24BIS RUE HENRI MARTIN,94200,IVRY SUR SEINE,48.805689,2.371864,24 BIS Rue Henri Martin 94200 Ivry-sur-Seine,0.87,housenumber,ADRNIVX_0000000270927053,24 BIS,Rue Henri Martin,,94200,Ivry-sur-Seine,"94, Val-de-Marne, Île-de-France",94041
249,21,2BIS RUE DU QUARTIER PARISIEN,94200,IVRY SUR SEINE,48.808061,2.3736759999999997,2 BIS Rue du Quartier Parisien 94200 Ivry-sur-Seine,0.87,housenumber,ADRNIVX_0000000270920402,2 BIS,Rue du Quartier Parisien,,94200,Ivry-sur-Seine,"94, Val-de-Marne, Île-de-France",94041
250,21,2BIS SENTIER DES HERBEUSES,94200,IVRY SUR SEINE,48.807916999999996,2.369972,2 BIS Sentier des Herbeuses 94200 Ivry-sur-Seine,0.87,housenumber,ADRNIVX_0000000270920418,2 BIS,Sentier des Herbeuses,,94200,Ivry-sur-Seine,"94, Val-de-Marne, Île-de-France",94041
251,21,30BIS RUE DU QUARTIER PARISIEN,94200,IVRY SUR SEINE,48.807404999999996,2.372128,30 BIS Rue du Quartier Parisien 94200 Ivry-sur-Seine,0.87,housenumber,ADRNIVX_0000000270923112,30 BIS,Rue du Quartier Parisien,,94200,Ivry-sur-Seine,"94, Val-de-Marne, Île-de-France",94041
252,21,38BIS RUE ROBERT DEGERT,94200,IVRY SUR SEINE,48.805046000000004,2.3734759999999997,38 BIS Rue Robert Degert 94200 Ivry-sur-Seine,0.87,housenumber,ADRNIVX_0000000270929538,38 BIS,Rue Robert Degert,,94200,Ivry-sur-Seine,"94, Val-de-Marne, Île-de-France",94041
253,21,7 PASSAGE DE GOURNAY,94200,IVRY SUR SEINE,48.805524,2.3723389999999998,Passage de Gournay 94200 Ivry-sur-Seine,0.87,street,94041_XXXX_1c971c,,Passage de Gournay,,94200,Ivry-sur-Seine,"94, Val-de-Marne, Île-de-France",94041
254,21,9 PASSAGE DE GOURNAY,94200,IVRY SUR SEINE,48.805524,2.3723389999999998,Passage de Gournay 94200 Ivry-sur-Seine,0.87,street,94041_XXXX_1c971c,,Passage de Gournay,,94200,Ivry-sur-Seine,"94, Val-de-Marne, Île-de-France",94041
255,23,6 RUE AMEDEE HUON,94200,IVRY SUR SEINE,48.804501,2.385771,Rue Amédée Huon 94200 Ivry-sur-Seine,0.87,street,94041_0044_5c0cf0,,Rue Amédée Huon,,94200,Ivry-sur-Seine,"94, Val-de-Marne, Île-de-France",94041
256,25,17BIS RUE GASTON PICARD,94200,IVRY SUR SEINE,48.810413,2.37584,17 BIS Rue Gaston Picard 94200 Ivry-sur-Seine,0.87,housenumber,ADRNIVX_0000000270914917,17 BIS,Rue Gaston Picard,,94200,Ivry-sur-Seine,"94, Val-de-Marne, Île-de-France",94041
257,25,18BIS RUE GASTON PICARD,94200,IVRY SUR SEINE,48.81078,2.376101,18 BIS Rue Gaston Picard 94200 Ivry-sur-Seine,0.87,housenumber,ADRNIVX_0000000270913644,18 BIS,Rue Gaston Picard,,94200,Ivry-sur-Seine,"94, Val-de-Marne, Île-de-France",94041
258,25,20BIS RUE GASTON PICARD,94200,IVRY SUR SEINE,48.810753000000005,2.376048,20 BIS Rue Gaston Picard 94200 Ivry-sur-Seine,0.87,housenumber,ADRNIVX_0000000270913645,20 BIS,Rue Gaston Picard,,94200,Ivry-sur-Seine,"94, Val-de-Marne, Île-de-France",94041
259,25,24BIS RUE GASTON PICARD,94200,IVRY SUR SEINE,48.810516,2.375916,24 BIS Rue Gaston Picard 94200 Ivry-sur-Seine,0.87,housenumber,ADRNIVX_0000000270914923,24 BIS,Rue Gaston Picard,,94200,Ivry-sur-Seine,"94, Val-de-Marne, Île-de-France",94041
260,25,27BIS RUE GASTON PICARD,94200,IVRY SUR SEINE,48.810071,2.3751849999999997,27 BIS Rue Gaston Picard 94200 Ivry-sur-Seine,0.87,housenumber,ADRNIVX_0000000270916016,27 BIS,Rue Gaston Picard,,94200,Ivry-sur-Seine,"94, Val-de-Marne, Île-de-France",94041
261,25,46BIS RUE GASTON PICARD,94200,IVRY SUR SEINE,48.809929,2.374683,46 BIS Rue Gaston Picard 94200 Ivry-sur-Seine,0.87,housenumber,ADRNIVX_0000000270916028,46 BIS,Rue Gaston Picard,,94200,Ivry-sur-Seine,"94, Val-de-Marne, Île-de-France",94041
262,25,5BIS RUE ALEXIS CHAUSSINAND,94200,IVRY SUR SEINE,48.8093,2.37668,5 BIS Rue Alexis Chaussinand 94200 Ivry-sur-Seine,0.87,housenumber,ADRNIVX_0000000270917026,5 BIS,Rue Alexis Chaussinand,,94200,Ivry-sur-Seine,"94, Val-de-Marne, Île-de-France",94041
263,25,9BIS RUE GASTON PICARD,94200,IVRY SUR SEINE,48.810891999999996,2.37676,9 BIS Rue Gaston Picard 94200 Ivry-sur-Seine,0.87,housenumber,ADRNIVX_0000000270913633,9 BIS,Rue Gaston Picard,,94200,Ivry-sur-Seine,"94, Val-de-Marne, Île-de-France",94041
264,25,9TER RUE GASTON PICARD,94200,IVRY SUR SEINE,48.810854,2.376664,9 TER Rue Gaston Picard 94200 Ivry-sur-Seine,0.87,housenumber,ADRNIVX_0000000270913634,9 TER,Rue Gaston Picard,,94200,Ivry-sur-Seine,"94, Val-de-Marne, Île-de-France",94041
265,26,2BIS AVENUE DE VERDUN,94200,IVRY SUR SEINE,48.816995,2.366955,2 BIS Avenue de Verdun 94200 Ivry-sur-Seine,0.87,housenumber,ADRNIVX_0000000270898624,2 BIS,Avenue de Verdun,,94200,Ivry-sur-Seine,"94, Val-de-Marne, Île-de-France",94041
266,26,2BIS RUE DE CHATEAUDUN,94200,IVRY SUR SEINE,48.81605,2.367326,2 BIS Rue de Châteaudun 94200 Ivry-sur-Seine,0.87,housenumber,ADRNIVX_0000000340217088,2 BIS,Rue de Châteaudun,,94200,Ivry-sur-Seine,"94, Val-de-Marne, Île-de-France",94041
267,26,3TER RUE DE CHATEAUDUN,94200,IVRY SUR SEINE,48.815864000000005,2.3671919999999997,3 TER Rue de Châteaudun 94200 Ivry-sur-Seine,0.87,housenumber,ADRNIVX_0000000270900264,3 TER,Rue de Châteaudun,,94200,Ivry-sur-Seine,"94, Val-de-Marne, Île-de-France",94041
268,26,5BIS RUE DE CHATEAUDUN,94200,IVRY SUR SEINE,48.815804,2.36701,5 BIS Rue de Châteaudun 94200 Ivry-sur-Seine,0.87,housenumber,ADRNIVX_0000000270900269,5 BIS,Rue de Châteaudun,,94200,Ivry-sur-Seine,"94, Val-de-Marne, Île-de-France",94041
269,26,7BIS RUE DE CHATEAUDUN,94200,IVRY SUR SEINE,48.815740999999996,2.366823,7 BIS Rue de Châteaudun 94200 Ivry-sur-Seine,0.87,housenumber,ADRNIVX_0000000270900272,7 BIS,Rue de Châteaudun,,94200,Ivry-sur-Seine,"94, Val-de-Marne, Île-de-France",94041
270,26,8BIS RUE DE CHATEAUDUN,94200,IVRY SUR SEINE,48.815849,2.366721,8 BIS Rue de Châteaudun 94200 Ivry-sur-Seine,0.87,housenumber,ADRNIVX_0000000270900275,8 BIS,Rue de Châteaudun,,94200,Ivry-sur-Seine,"94, Val-de-Marne, Île-de-France",94041
271,27,10BIS RUE DES FRERES BLAIS,94200,IVRY SUR SEINE,48.807015,2.384376,10 BIS Rue des Frères Blais 94200 Ivry-sur-Seine,0.87,housenumber,ADRNIVX_0000000270924403,10 BIS,Rue des Frères Blais,,94200,Ivry-sur-Seine,"94, Val-de-Marne, Île-de-France",94041
272,27,133BIS RUE MARCEL HARTMANN,94200,IVRY SUR SEINE,48.808098,2.3831700000000002,133 BIS Rue Marcel Hartmann 94200 Ivry-sur-Seine,0.87,housenumber,ADRNIVX_0000000270920360,133 BIS,Rue Marcel Hartmann,,94200,Ivry-sur-Seine,"94, Val-de-Marne, Île-de-France",94041
273,27,168BIS RUE MARCEL HARTMANN,94200,IVRY SUR SEINE,48.807187,2.3850119999999997,168 BIS Rue Marcel Hartmann 94200 Ivry-sur-Seine,0.87,housenumber,ADRNIVX_0000000270923056,168 BIS,Rue Marcel Hartmann,,94200,Ivry-sur-Seine,"94, Val-de-Marne, Île-de-France",94041
274,27,16BIS RUE DES FRERES BLAIS,94200,IVRY SUR SEINE,48.806771000000005,2.384659,16 BIS Rue des Frères Blais 94200 Ivry-sur-Seine,0.87,housenumber,ADRNIVX_0000000270924408,16 BIS,Rue des Frères Blais,,94200,Ivry-sur-Seine,"94, Val-de-Marne, Île-de-France",94041
275,27,184B RUE MARCEL HARTMANN,94200,IVRY SUR SEINE,48.806327,2.3855180000000002,184 B Rue Marcel Hartmann 94200 Ivry-sur-Seine,0.87,housenumber,ADRNIVX_0000000270925691,184 B,Rue Marcel Hartmann,,94200,Ivry-sur-Seine,"94, Val-de-Marne, Île-de-France",94041
276,27,18BIS RUE DES FRERES BLAIS,94200,IVRY SUR SEINE,48.806684999999995,2.3847549999999997,18 BIS Rue des Frères Blais 94200 Ivry-sur-Seine,0.87,housenumber,ADRNIVX_0000000270924397,18 BIS,Rue des Frères Blais,,94200,Ivry-sur-Seine,"94, Val-de-Marne, Île-de-France",94041
277,27,20BIS RUE DES FRERES BLAIS,94200,IVRY SUR SEINE,48.80652,2.3849009999999997,20 BIS Rue des Frères Blais 94200 Ivry-sur-Seine,0.87,housenumber,ADRNIVX_0000000270925696,20 BIS,Rue des Frères Blais,,94200,Ivry-sur-Seine,"94, Val-de-Marne, Île-de-France",94041
278,27,3BIS RUE DES FRERES BLAIS,94200,IVRY SUR SEINE,48.807282,2.384184,3 BIS Rue des Frères Blais 94200 Ivry-sur-Seine,0.87,housenumber,ADRNIVX_0000000270923060,3 BIS,Rue des Frères Blais,,94200,Ivry-sur-Seine,"94, Val-de-Marne, Île-de-France",94041
279,27,3BIS RUE MAURICE COUTANT,94200,IVRY SUR SEINE,48.806238,2.3857369999999998,3 BIS Rue Maurice Coûtant 94200 Ivry-sur-Seine,0.87,housenumber,ADRNIVX_0000000270925694,3 BIS,Rue Maurice Coûtant,,94200,Ivry-sur-Seine,"94, Val-de-Marne, Île-de-France",94041
280,27,4 RUE LUCIEN NADAIRE,94200,IVRY SUR SEINE,48.802023999999996,2.393898,Rue Lucien Nadaire 94200 Ivry-sur-Seine,0.87,street,94041_5178_d70a4d,,Rue Lucien Nadaire,,94200,Ivry-sur-Seine,"94, Val-de-Marne, Île-de-France",94041
281,28,26BIS RUE LOUIS BERTRAND,94200,IVRY SUR SEINE,48.816990000000004,2.37794,26 BIS Rue Louis Bertrand 94200 Ivry-sur-Seine,0.87,housenumber,ADRNIVX_0000000270898566,26 BIS,Rue Louis Bertrand,,94200,Ivry-sur-Seine,"94, Val-de-Marne, Île-de-France",94041
282,28,2BIS RUE ANTOINE THOMAS,94200,IVRY SUR SEINE,48.816990000000004,2.378584,2 BIS Rue Antoine Thomas 94200 Ivry-sur-Seine,0.87,housenumber,ADRNIVX_0000000270898553,2 BIS,Rue Antoine Thomas,,94200,Ivry-sur-Seine,"94, Val-de-Marne, Île-de-France",94041
283,28,37BIS RUE ANTOINE THOMAS,94200,IVRY SUR SEINE,48.818614000000004,2.3772889999999998,37 BIS Rue Antoine Thomas 94200 Ivry-sur-Seine,0.87,housenumber,ADRNIVX_0000000270896058,37 BIS,Rue Antoine Thomas,,94200,Ivry-sur-Seine,"94, Val-de-Marne, Île-de-France",94041
284,28,42BIS RUE ANTOINE THOMAS,94200,IVRY SUR SEINE,48.818945,2.37712,42 BIS Rue Antoine Thomas 94200 Ivry-sur-Seine,0.87,housenumber,ADRNIVX_0000000270895265,42 BIS,Rue Antoine Thomas,,94200,Ivry-sur-Seine,"94, Val-de-Marne, Île-de-France",94041
285,28,46BIS RUE ANTOINE THOMAS,94200,IVRY SUR SEINE,48.819278999999995,2.3771310000000003,46 BIS Rue Antoine Thomas 94200 Ivry-sur-Seine,0.87,housenumber,ADRNIVX_0000000325417266,46 BIS,Rue Antoine Thomas,,94200,Ivry-sur-Seine,"94, Val-de-Marne, Île-de-France",94041
286,28,49BIS RUE ANTOINE THOMAS,94200,IVRY SUR SEINE,48.819119,2.377009,49 BIS Rue Antoine Thomas 94200 Ivry-sur-Seine,0.87,housenumber,ADRNIVX_0000000325417272,49 BIS,Rue Antoine Thomas,,94200,Ivry-sur-Seine,"94, Val-de-Marne, Île-de-France",94041
287,28,4BIS RUE ANTOINE THOMAS,94200,IVRY SUR SEINE,48.817168,2.3784549999999998,4 BIS Rue Antoine Thomas 94200 Ivry-sur-Seine,0.87,housenumber,ADRNIVX_0000000270898555,4 BIS,Rue Antoine Thomas,,94200,Ivry-sur-Seine,"94, Val-de-Marne, Île-de-France",94041
288,28,56BIS RUE LOUIS BERTRAND,94200,IVRY SUR SEINE,48.818071999999994,2.376912,56 BIS Rue Louis Bertrand 94200 Ivry-sur-Seine,0.87,housenumber,ADRNIVX_0000000270896933,56 BIS,Rue Louis Bertrand,,94200,Ivry-sur-Seine,"94, Val-de-Marne, Île-de-France",94041
289,28,59BIS RUE LOUIS BERTRAND,94200,IVRY SUR SEINE,48.817693,2.377098,59 BIS Rue Louis Bertrand 94200 Ivry-sur-Seine,0.87,housenumber,ADRNIVX_0000000270896935,59 BIS,Rue Louis Bertrand,,94200,Ivry-sur-Seine,"94, Val-de-Marne, Île-de-France",94041
290,28,61BIS RUE LOUIS BERTRAND,94200,IVRY SUR SEINE,48.817931,2.376872,61 BIS Rue Louis Bertrand 94200 Ivry-sur-Seine,0.87,housenumber,ADRNIVX_0000000270896938,61 BIS,Rue Louis Bertrand,,94200,Ivry-sur-Seine,"94, Val-de-Marne, Île-de-France",94041
291,29,1BIS RUE JEAN LE GALLEU,94200,IVRY SUR SEINE,48.814977,2.375928,1 BIS Rue Jean le Galleu 94200 Ivry-sur-Seine,0.87,housenumber,ADRNIVX_0000000357475556,1 BIS,Rue Jean le Galleu,,94200,Ivry-sur-Seine,"94, Val-de-Marne, Île-de-France",94041
292,29,24BIS RUE ROGER BUESSARD,94200,IVRY SUR SEINE,48.810701,2.374673,24 BIS Rue Roger Buessard 94200 Ivry-sur-Seine,0.87,housenumber,ADRNIVX_0000000270914940,24 BIS,Rue Roger Buessard,,94200,Ivry-sur-Seine,"94, Val-de-Marne, Île-de-France",94041
293,30,16 AVENUE MAURICE THOREZ,94200,IVRY SUR SEINE,48.815815,2.377524,Avenue Maurice Thorez 94200 Ivry-sur-Seine,0.87,street,94041_6145_3cd1ac,,Avenue Maurice Thorez,,94200,Ivry-sur-Seine,"94, Val-de-Marne, Île-de-France",94041
294,31,10 RUE JEAN-MARIE POULMARCH,94200,IVRY SUR SEINE,48.816590999999995,2.3753029999999997,10 Rue Jean-Marie Poulmarc'H 94200 Ivry-sur-Seine,0.87,housenumber,ADRNIVX_0000000270899306,10,Rue Jean-Marie Poulmarc'H,,94200,Ivry-sur-Seine,"94, Val-de-Marne, Île-de-France",94041
295,31,11 RUE JEAN-MARIE POULMARCH,94200,IVRY SUR SEINE,48.816517,2.3753439999999997,11 Rue Jean-Marie Poulmarc'H 94200 Ivry-sur-Seine,0.87,housenumber,ADRNIVX_0000000270899307,11,Rue Jean-Marie Poulmarc'H,,94200,Ivry-sur-Seine,"94, Val-de-Marne, Île-de-France",94041
296,31,13 RUE JEAN-MARIE POULMARCH,94200,IVRY SUR SEINE,48.816475,2.3752169999999997,13 Rue Jean-Marie Poulmarc'H 94200 Ivry-sur-Seine,0.87,housenumber,ADRNIVX_0000000270899309,13,Rue Jean-Marie Poulmarc'H,,94200,Ivry-sur-Seine,"94, Val-de-Marne, Île-de-France",94041
297,31,15 RUE JEAN-MARIE POULMARCH,94200,IVRY SUR SEINE,48.816431,2.375091,15 Rue Jean-Marie Poulmarc'H 94200 Ivry-sur-Seine,0.87,housenumber,ADRNIVX_0000000270899311,15,Rue Jean-Marie Poulmarc'H,,94200,Ivry-sur-Seine,"94, Val-de-Marne, Île-de-France",94041
298,31,1BIS RUE PIERRE ET MARIE CURIE,94200,IVRY SUR SEINE,48.815754,2.376808,1 BIS Rue Pierre et Marie Curie 94200 Ivry-sur-Seine,0.87,housenumber,ADRNIVX_0000000270901148,1 BIS,Rue Pierre et Marie Curie,,94200,Ivry-sur-Seine,"94, Val-de-Marne, Île-de-France",94041
299,31,2 RUE JEAN-MARIE POULMARCH,94200,IVRY SUR SEINE,48.816838,2.376054,2 Rue Jean-Marie Poulmarc'H 94200 Ivry-sur-Seine,0.87,housenumber,ADRNIVX_0000000270898580,2,Rue Jean-Marie Poulmarc'H,,94200,Ivry-sur-Seine,"94, Val-de-Marne, Île-de-France",94041
300,31,52BIS AVENUE MAURICE THOREZ,94200,IVRY SUR SEINE,48.817357,2.375731,52 BIS Avenue Maurice Thorez 94200 Ivry-sur-Seine,0.87,housenumber,ADRNIVX_0000000354634100,52 BIS,Avenue Maurice Thorez,,94200,Ivry-sur-Seine,"94, Val-de-Marne, Île-de-France",94041
301,31,52TER AVENUE MAURICE THOREZ,94200,IVRY SUR SEINE,48.817281,2.375798,52 TER Avenue Maurice Thorez 94200 Ivry-sur-Seine,0.87,housenumber,ADRNIVX_0000000354634101,52 TER,Avenue Maurice Thorez,,94200,Ivry-sur-Seine,"94, Val-de-Marne, Île-de-France",94041
302,31,58BIS AVENUE MAURICE THOREZ,94200,IVRY SUR SEINE,48.817008,2.376052,58 BIS Avenue Maurice Thorez 94200 Ivry-sur-Seine,0.87,housenumber,ADRNIVX_0000000270898585,58 BIS,Avenue Maurice Thorez,,94200,Ivry-sur-Seine,"94, Val-de-Marne, Île-de-France",94041
303,31,58TER AVENUE MAURICE THOREZ,94200,IVRY SUR SEINE,48.816931,2.376121,58 TER Avenue Maurice Thorez 94200 Ivry-sur-Seine,0.87,housenumber,ADRNIVX_0000000270898586,58 TER,Avenue Maurice Thorez,,94200,Ivry-sur-Seine,"94, Val-de-Marne, Île-de-France",94041
304,31,6 RUE JEAN-MARIE POULMARCH,94200,IVRY SUR SEINE,48.816697,2.375626,6 Rue Jean-Marie Poulmarc'H 94200 Ivry-sur-Seine,0.87,housenumber,ADRNIVX_0000000270899303,6,Rue Jean-Marie Poulmarc'H,,94200,Ivry-sur-Seine,"94, Val-de-Marne, Île-de-France",94041
305,31,60BIS AVENUE MAURICE THOREZ,94200,IVRY SUR SEINE,48.816644000000004,2.376415,60 BIS Avenue Maurice Thorez 94200 Ivry-sur-Seine,0.87,housenumber,ADRNIVX_0000000311786915,60 BIS,Avenue Maurice Thorez,,94200,Ivry-sur-Seine,"94, Val-de-Marne, Île-de-France",94041
306,31,66BIS AVENUE MAURICE THOREZ,94200,IVRY SUR SEINE,48.815847999999995,2.377195,66 BIS Avenue Maurice Thorez 94200 Ivry-sur-Seine,0.87,housenumber,ADRNIVX_0000000340217547,66 BIS,Avenue Maurice Thorez,,94200,Ivry-sur-Seine,"94, Val-de-Marne, Île-de-France",94041
307,31,8 RUE JEAN-MARIE POULMARCH,94200,IVRY SUR SEINE,48.816671,2.375501,8 Rue Jean-Marie Poulmarc'H 94200 Ivry-sur-Seine,0.87,housenumber,ADRNIVX_0000000311786909,8,Rue Jean-Marie Poulmarc'H,,94200,Ivry-sur-Seine,"94, Val-de-Marne, Île-de-France",94041
308,31,87BIS AVENUE MAURICE THOREZ,94200,IVRY SUR SEINE,48.817393,2.376003,87 BIS Avenue Maurice Thorez 94200 Ivry-sur-Seine,0.87,housenumber,ADRNIVX_0000000270897747,87 BIS,Avenue Maurice Thorez,,94200,Ivry-sur-Seine,"94, Val-de-Marne, Île-de-France",94041
309,31,93 AVENUE MAURICE THOREZ,94200,IVRY SUR SEINE,48.815815,2.377524,Avenue Maurice Thorez 94200 Ivry-sur-Seine,0.87,street,94041_6145_3cd1ac,,Avenue Maurice Thorez,,94200,Ivry-sur-Seine,"94, Val-de-Marne, Île-de-France",94041
310,32,18 RUE JEAN-MARIE POULMARCH,94200,IVRY SUR SEINE,48.8163,2.3744259999999997,18 Rue Jean-Marie Poulmarc'H 94200 Ivry-sur-Seine,0.87,housenumber,ADRNIVX_0000000354634090,18,Rue Jean-Marie Poulmarc'H,,94200,Ivry-sur-Seine,"94, Val-de-Marne, Île-de-France",94041
311,32,21 RUE JEAN-MARIE POULMARCH,94200,IVRY SUR SEINE,48.815982,2.3736610000000002,21 Rue Jean-Marie Poulmarc'H 94200 Ivry-sur-Seine,0.87,housenumber,ADRNIVX_0000000270899319,21,Rue Jean-Marie Poulmarc'H,,94200,Ivry-sur-Seine,"94, Val-de-Marne, Île-de-France",94041
312,32,22 RUE JEAN-MARIE POULMARCH,94200,IVRY SUR SEINE,48.816082,2.37342,22 Rue Jean-Marie Poulmarc'H 94200 Ivry-sur-Seine,0.87,housenumber,ADRNIVX_0000000270900232,22,Rue Jean-Marie Poulmarc'H,,94200,Ivry-sur-Seine,"94, Val-de-Marne, Île-de-France",94041
313,32,24 RUE JEAN-MARIE POULMARCH,94200,IVRY SUR SEINE,48.815979999999996,2.3731619999999998,24 Rue Jean-Marie Poulmarc'H 94200 Ivry-sur-Seine,0.87,housenumber,ADRNIVX_0000000270900233,24,Rue Jean-Marie Poulmarc'H,,94200,Ivry-sur-Seine,"94, Val-de-Marne, Île-de-France",94041
314,32,26 RUE JEAN-MARIE POULMARCH,94200,IVRY SUR SEINE,48.815909000000005,2.3729560000000003,26 Rue Jean-Marie Poulmarc'H 94200 Ivry-sur-Seine,0.87,housenumber,ADRNIVX_0000000270900234,26,Rue Jean-Marie Poulmarc'H,,94200,Ivry-sur-Seine,"94, Val-de-Marne, Île-de-France",94041
315,32,29 RUE PIERRE ET MARIE CURIE,94200,IVRY SUR SEINE,48.814640999999995,2.374148,Rue Pierre et Marie Curie 94200 Ivry-sur-Seine,0.87,street,94041_7153_417055,,Rue Pierre et Marie Curie,,94200,Ivry-sur-Seine,"94, Val-de-Marne, Île-de-France",94041
316,33,25 RUE PIERRE BROSSOLETTE,94200,IVRY SUR SEINE,48.816134000000005,2.381462,Rue Pierre Brossolette 94200 Ivry-sur-Seine,0.87,street,94041_7150_538550,,Rue Pierre Brossolette,,94200,Ivry-sur-Seine,"94, Val-de-Marne, Île-de-France",94041
317,33,2BIS RUE PIERRE BROSSOLETTE,94200,IVRY SUR SEINE,48.815413,2.381464,2 BIS Rue Pierre Brossolette 94200 Ivry-sur-Seine,0.87,housenumber,ADRNIVX_0000000270901126,2 BIS,Rue Pierre Brossolette,,94200,Ivry-sur-Seine,"94, Val-de-Marne, Île-de-France",94041
318,33,31BIS RUE LOUIS BERTRAND,94200,IVRY SUR SEINE,48.815867,2.378834,31 BIS Rue Louis Bertrand 94200 Ivry-sur-Seine,0.87,housenumber,ADRNIVX_0000000270898564,31 BIS,Rue Louis Bertrand,,94200,Ivry-sur-Seine,"94, Val-de-Marne, Île-de-France",94041
319,33,7BIS RUE PIERRE BROSSOLETTE,94200,IVRY SUR SEINE,48.816029,2.381382,7 BIS Rue Pierre Brossolette 94200 Ivry-sur-Seine,0.87,housenumber,ADRNIVX_0000000270900195,7 BIS,Rue Pierre Brossolette,,94200,Ivry-sur-Seine,"94, Val-de-Marne, Île-de-France",94041
320,34,4BIS RUE GEORGETTE ROSTAING,94200,IVRY SUR SEINE,48.809305,2.378775,4 BIS Rue Georgette Rostaing 94200 Ivry-sur-Seine,0.87,housenumber,ADRNIVX_0000000270918049,4 BIS,Rue Georgette Rostaing,,94200,Ivry-sur-Seine,"94, Val-de-Marne, Île-de-France",94041
321,34,88BIS AVENUE DE VERDUN,94200,IVRY SUR SEINE,48.807474,2.374437,88 BIS Avenue de Verdun 94200 Ivry-sur-Seine,0.87,housenumber,ADRNIVX_0000000270923100,88 BIS,Avenue de Verdun,,94200,Ivry-sur-Seine,"94, Val-de-Marne, Île-de-France",94041
322,34,88TER AVENUE DE VERDUN,94200,IVRY SUR SEINE,48.807387,2.374505,88 TER Avenue de Verdun 94200 Ivry-sur-Seine,0.87,housenumber,ADRNIVX_0000000270923101,88 TER,Avenue de Verdun,,94200,Ivry-sur-Seine,"94, Val-de-Marne, Île-de-France",94041
323,34,92BIS AVENUE DE VERDUN,94200,IVRY SUR SEINE,48.807177,2.374645,92 BIS Avenue de Verdun 94200 Ivry-sur-Seine,0.87,housenumber,ADRNIVX_0000000270923104,92 BIS,Avenue de Verdun,,94200,Ivry-sur-Seine,"94, Val-de-Marne, Île-de-France",94041
324,35,15 RUE GASTON MONMOUSSEAU,94200,IVRY SUR SEINE,48.805159,2.3798340000000002,Rue Gaston Monmousseau 94200 Ivry-sur-Seine,0.87,street,94041_4136_3dafa6,,Rue Gaston Monmousseau,,94200,Ivry-sur-Seine,"94, Val-de-Marne, Île-de-France",94041
325,36,14BIS AVENUE PIERRE SEMARD,94200,IVRY SUR SEINE,48.820601,2.3793580000000003,14 BIS Avenue Pierre Semard 94200 Ivry-sur-Seine,0.87,housenumber,ADRNIVX_0000000270892019,14 BIS,Avenue Pierre Semard,,94200,Ivry-sur-Seine,"94, Val-de-Marne, Île-de-France",94041
326,36,18BIS AVENUE PIERRE SEMARD,94200,IVRY SUR SEINE,48.820324,2.37955,18 BIS Avenue Pierre Semard 94200 Ivry-sur-Seine,0.87,housenumber,ADRNIVX_0000000270892860,18 BIS,Avenue Pierre Semard,,94200,Ivry-sur-Seine,"94, Val-de-Marne, Île-de-France",94041
327,36,23BIS AVENUE PIERRE SEMARD,94200,IVRY SUR SEINE,48.818699,2.380894,23 BIS Avenue Pierre Semard 94200 Ivry-sur-Seine,0.87,housenumber,ADRNIVX_0000000270895233,23 BIS,Avenue Pierre Semard,,94200,Ivry-sur-Seine,"94, Val-de-Marne, Île-de-France",94041
328,36,28BIS AVENUE PIERRE SEMARD,94200,IVRY SUR SEINE,48.819967,2.379803,28 BIS Avenue Pierre Semard 94200 Ivry-sur-Seine,0.87,housenumber,ADRNIVX_0000000270892845,28 BIS,Avenue Pierre Semard,,94200,Ivry-sur-Seine,"94, Val-de-Marne, Île-de-France",94041
329,36,31BIS AVENUE PIERRE SEMARD,94200,IVRY SUR SEINE,48.818262,2.381191,31 BIS Avenue Pierre Semard 94200 Ivry-sur-Seine,0.87,housenumber,ADRNIVX_0000000270896025,31 BIS,Avenue Pierre Semard,,94200,Ivry-sur-Seine,"94, Val-de-Marne, Île-de-France",94041
330,36,33BIS AVENUE PIERRE SEMARD,94200,IVRY SUR SEINE,48.818081,2.3813150000000003,33 BIS Avenue Pierre Semard 94200 Ivry-sur-Seine,0.87,housenumber,ADRNIVX_0000000270896874,33 BIS,Avenue Pierre Semard,,94200,Ivry-sur-Seine,"94, Val-de-Marne, Île-de-France",94041
331,36,35BIS AVENUE PIERRE SEMARD,94200,IVRY SUR SEINE,48.817842,2.381484,35 BIS Avenue Pierre Semard 94200 Ivry-sur-Seine,0.87,housenumber,ADRNIVX_0000000270896876,35 BIS,Avenue Pierre Semard,,94200,Ivry-sur-Seine,"94, Val-de-Marne, Île-de-France",94041
332,36,72BIS AVENUE PIERRE SEMARD,94200,IVRY SUR SEINE,48.817839,2.381313,72 BIS Avenue Pierre Semard 94200 Ivry-sur-Seine,0.87,housenumber,ADRNIVX_0000000270896881,72 BIS,Avenue Pierre Semard,,94200,Ivry-sur-Seine,"94, Val-de-Marne, Île-de-France",94041
333,2,75BIS AVENUE DANIELLE CASANOVA,94200,IVRY SUR SEINE,48.814187,2.384616,75 BIS Avenue Danielle Casanova 94200 Ivry-sur-Seine,0.88,housenumber,ADRNIVX_0000000270903268,75 BIS,Avenue Danielle Casanova,,94200,Ivry-sur-Seine,"94, Val-de-Marne, Île-de-France",94041
334,2,75TER AVENUE DANIELLE CASANOVA,94200,IVRY SUR SEINE,48.814051,2.38473,75 TER Avenue Danielle Casanova 94200 Ivry-sur-Seine,0.88,housenumber,ADRNIVX_0000000270905855,75 TER,Avenue Danielle Casanova,,94200,Ivry-sur-Seine,"94, Val-de-Marne, Île-de-France",94041
335,4,211BIS AVENUE MAURICE THOREZ,94200,IVRY SUR SEINE,48.811396,2.383038,211 BIS Avenue Maurice Thorez 94200 Ivry-sur-Seine,0.88,housenumber,ADRNIVX_0000000270912377,211 BIS,Avenue Maurice Thorez,,94200,Ivry-sur-Seine,"94, Val-de-Marne, Île-de-France",94041
336,4,4 TERRASSE JEANNE HACHETTE,94200,IVRY SUR SEINE,48.810877000000005,2.385271,Terrasse Jeanne Hachette 94200 Ivry-sur-Seine,0.88,street,94041_4764_75edee,,Terrasse Jeanne Hachette,,94200,Ivry-sur-Seine,"94, Val-de-Marne, Île-de-France",94041
337,7,58BIS RUE JEAN JACQUES ROUSSEAU,94200,IVRY SUR SEINE,48.816332,2.395639,58 BIS Rue Jean-Jacques Rousseau 94200 Ivry-sur-Seine,0.88,housenumber,ADRNIVX_0000000270900154,58 BIS,Rue Jean-Jacques Rousseau,,94200,Ivry-sur-Seine,"94, Val-de-Marne, Île-de-France",94041
338,7,96BIS BOULEVARD PAUL VAILLANT COUTURIER,94200,IVRY SUR SEINE,48.816196999999995,2.40014,96 BIS Boulevard Paul Vaillant-Couturier 94200 Ivry-sur-Seine,0.88,housenumber,ADRNIVX_0000000354634134,96 BIS,Boulevard Paul Vaillant-Couturier,,94200,Ivry-sur-Seine,"94, Val-de-Marne, Île-de-France",94041
339,8,14BIS RUE JEAN JACQUES ROUSSEAU,94200,IVRY SUR SEINE,48.819037,2.392766,14 BIS Rue Jean-Jacques Rousseau 94200 Ivry-sur-Seine,0.88,housenumber,ADRNIVX_0000000270895212,14 BIS,Rue Jean-Jacques Rousseau,,94200,Ivry-sur-Seine,"94, Val-de-Marne, Île-de-France",94041
340,8,15BIS RUE JEAN JACQUES ROUSSEAU,94200,IVRY SUR SEINE,48.818967,2.393045,15 BIS Rue Jean-Jacques Rousseau 94200 Ivry-sur-Seine,0.88,housenumber,ADRNIVX_0000000270895205,15 BIS,Rue Jean-Jacques Rousseau,,94200,Ivry-sur-Seine,"94, Val-de-Marne, Île-de-France",94041
341,8,16BIS RUE JEAN JACQUES ROUSSEAU,94200,IVRY SUR SEINE,48.818896,2.3929150000000003,16 BIS Rue Jean-Jacques Rousseau 94200 Ivry-sur-Seine,0.88,housenumber,ADRNIVX_0000000270895214,16 BIS,Rue Jean-Jacques Rousseau,,94200,Ivry-sur-Seine,"94, Val-de-Marne, Île-de-France",94041
342,8,17BIS RUE JEAN JACQUES ROUSSEAU,94200,IVRY SUR SEINE,48.818729,2.393291,17 BIS Rue Jean-Jacques Rousseau 94200 Ivry-sur-Seine,0.88,housenumber,ADRNIVX_0000000270895206,17 BIS,Rue Jean-Jacques Rousseau,,94200,Ivry-sur-Seine,"94, Val-de-Marne, Île-de-France",94041
343,11,45BIS BOULEVARD DE BRANDEBOURG,94200,IVRY SUR SEINE,48.814431,2.395861,45 BIS Boulevard de Brandebourg 94200 Ivry-sur-Seine,0.88,housenumber,ADRNIVX_0000000270903236,45 BIS,Boulevard de Brandebourg,,94200,Ivry-sur-Seine,"94, Val-de-Marne, Île-de-France",94041
344,15,1 RUE JEAN TREMOULET,94200,IVRY SUR SEINE,48.803736,2.394466,Rue Jean Trémoulet 94200 Ivry-sur-Seine,0.88,street,94041_4760_a64b51,,Rue Jean Trémoulet,,94200,Ivry-sur-Seine,"94, Val-de-Marne, Île-de-France",94041
345,15,8 RUE JEAN BONNEFOIX,94200,IVRY SUR SEINE,48.806216,2.391203,Rue Jean Bonnefoix 94200 Ivry-sur-Seine,0.88,street,94041_4725_2143c3,,Rue Jean Bonnefoix,,94200,Ivry-sur-Seine,"94, Val-de-Marne, Île-de-France",94041
346,21,2 RUE RAYMOND LEFEVRE,94200,IVRY SUR SEINE,48.807689,2.368816,Rue Raymond Lefèvre 94200 Ivry-sur-Seine,0.88,street,94041_8112_e30078,,Rue Raymond Lefèvre,,94200,Ivry-sur-Seine,"94, Val-de-Marne, Île-de-France",94041
347,21,6 RUE RAYMOND LEFEVRE,94200,IVRY SUR SEINE,48.807689,2.368816,Rue Raymond Lefèvre 94200 Ivry-sur-Seine,0.88,street,94041_8112_e30078,,Rue Raymond Lefèvre,,94200,Ivry-sur-Seine,"94, Val-de-Marne, Île-de-France",94041
348,21,8 RUE RAYMOND LEFEVRE,94200,IVRY SUR SEINE,48.807689,2.368816,Rue Raymond Lefèvre 94200 Ivry-sur-Seine,0.88,street,94041_8112_e30078,,Rue Raymond Lefèvre,,94200,Ivry-sur-Seine,"94, Val-de-Marne, Île-de-France",94041
349,27,4 RUE MAURICE COUTANT,94200,IVRY SUR SEINE,48.805647,2.384592,Rue Maurice Coûtant 94200 Ivry-sur-Seine,0.88,street,94041_6135_11f71f,,Rue Maurice Coûtant,,94200,Ivry-sur-Seine,"94, Val-de-Marne, Île-de-France",94041
350,31,105BIS AVENUE MAURICE THOREZ,94200,IVRY SUR SEINE,48.816461,2.376895,105 BIS Avenue Maurice Thorez 94200 Ivry-sur-Seine,0.88,housenumber,ADRNIVX_0000000270899301,105 BIS,Avenue Maurice Thorez,,94200,Ivry-sur-Seine,"94, Val-de-Marne, Île-de-France",94041
351,32,13BIS RUE PIERRE ET MARIE CURIE,94200,IVRY SUR SEINE,48.814173,2.37344,13 BIS Rue Pierre et Marie Curie 94200 Ivry-sur-Seine,0.88,housenumber,ADRNIVX_0000000340217090,13 BIS,Rue Pierre et Marie Curie,,94200,Ivry-sur-Seine,"94, Val-de-Marne, Île-de-France",94041
352,32,14BIS RUE PIERRE ET MARIE CURIE,94200,IVRY SUR SEINE,48.815129,2.375147,14 BIS Rue Pierre et Marie Curie 94200 Ivry-sur-Seine,0.88,housenumber,ADRNIVX_0000000270902125,14 BIS,Rue Pierre et Marie Curie,,94200,Ivry-sur-Seine,"94, Val-de-Marne, Île-de-France",94041
353,33,4 RUE CELESTINO ALFONSO,94200,IVRY SUR SEINE,48.816404,2.377646,Rue Celestino Alfonso 94200 Ivry-sur-Seine,0.88,street,94041_1415_02f965,,Rue Celestino Alfonso,,94200,Ivry-sur-Seine,"94, Val-de-Marne, Île-de-France",94041
354,34,182BIS BOULEVARD DE STALINGRAD,94200,IVRY SUR SEINE,48.806492999999996,2.375742,182 BIS Boulevard de Stalingrad 94200 Ivry-sur-Seine,0.88,housenumber,ADRNIVX_0000000270925728,182 BIS,Boulevard de Stalingrad,,94200,Ivry-sur-Seine,"94, Val-de-Marne, Île-de-France",94041
355,5,7 AVENUE DU GENERAL LECLERC,94200,IVRY SUR SEINE,48.812044,2.3801799999999997,Avenue du Général Leclerc 94200 Ivry-sur-Seine,0.89,street,94041_4140_3dac4e,,Avenue du Général Leclerc,,94200,Ivry-sur-Seine,"94, Val-de-Marne, Île-de-France",94041
356,8,8 RUE JEAN JACQUES ROUSSEAU,94200,IVRY SUR SEINE,48.817782,2.394217,Rue Jean-Jacques Rousseau 94200 Ivry-sur-Seine,0.89,street,94041_4740_b8df44,,Rue Jean-Jacques Rousseau,,94200,Ivry-sur-Seine,"94, Val-de-Marne, Île-de-France",94041
357,21,15 PASSAGE DE GOURNAY,94200,IVRY SUR SEINE,48.805524,2.3723389999999998,15 Passage de Gournay 94200 Ivry-sur-Seine,0.91,housenumber,ADRNIVX_0000000270928337,15,Passage de Gournay,,94200,Ivry-sur-Seine,"94, Val-de-Marne, Île-de-France",94041
358,27,2 ROUTE DU FORT,94200,IVRY SUR SEINE,48.803605,2.388921,2 Route du Fort 94200 Ivry-sur-Seine,0.91,housenumber,ADRNIVX_0000000270933139,2,Route du Fort,,94200,Ivry-sur-Seine,"94, Val-de-Marne, Île-de-France",94041
359,1,ESPLANADE GEORGES MARRANE,94200,IVRY SUR SEINE,48.812041,2.388115,Esplanade Georges Marrane 94200 Ivry-sur-Seine,0.92,street,94041_4165_299bc2,,Esplanade Georges Marrane,,94200,Ivry-sur-Seine,"94, Val-de-Marne, Île-de-France",94041
360,1,1 RUE LOUIS ROUSSEAU,94200,IVRY SUR SEINE,48.811572,2.383957,1 Rue Louis Rousseau 94200 Ivry-sur-Seine,0.92,housenumber,ADRNIVX_0000000270912359,1,Rue Louis Rousseau,,94200,Ivry-sur-Seine,"94, Val-de-Marne, Île-de-France",94041
361,1,10 RUE D'ESTIENNE D'ORVES,94200,IVRY SUR SEINE,48.813443,2.382215,10 Rue d'Estienne d'Orves 94200 Ivry-sur-Seine,0.92,housenumber,ADRNIVX_0000000270907148,10,Rue d'Estienne d'Orves,,94200,Ivry-sur-Seine,"94, Val-de-Marne, Île-de-France",94041
362,1,10 RUE JEAN BAPTISTE CLEMENT,94200,IVRY SUR SEINE,48.811135,2.386278,10 Rue Jean-Baptiste Clément 94200 Ivry-sur-Seine,0.92,housenumber,ADRNIVX_0000000270913546,10,Rue Jean-Baptiste Clément,,94200,Ivry-sur-Seine,"94, Val-de-Marne, Île-de-France",94041
363,1,10 RUE LOUIS ROUSSEAU,94200,IVRY SUR SEINE,48.812214000000004,2.383516,10 Rue Louis Rousseau 94200 Ivry-sur-Seine,0.92,housenumber,ADRNIVX_0000000270909751,10,Rue Louis Rousseau,,94200,Ivry-sur-Seine,"94, Val-de-Marne, Île-de-France",94041
364,1,11 RUE JEAN BAPTISTE CLEMENT,94200,IVRY SUR SEINE,48.810983,2.3862419999999998,11 Rue Jean-Baptiste Clément 94200 Ivry-sur-Seine,0.92,housenumber,ADRNIVX_0000000270913547,11,Rue Jean-Baptiste Clément,,94200,Ivry-sur-Seine,"94, Val-de-Marne, Île-de-France",94041
365,1,11 RUE LOUIS ROUSSEAU,94200,IVRY SUR SEINE,48.812495,2.383074,11 Rue Louis Rousseau 94200 Ivry-sur-Seine,0.92,housenumber,ADRNIVX_0000000270909752,11,Rue Louis Rousseau,,94200,Ivry-sur-Seine,"94, Val-de-Marne, Île-de-France",94041
366,1,12 RUE D'ESTIENNE D'ORVES,94200,IVRY SUR SEINE,48.813384,2.382079,12 Rue d'Estienne d'Orves 94200 Ivry-sur-Seine,0.92,housenumber,ADRNIVX_0000000270907149,12,Rue d'Estienne d'Orves,,94200,Ivry-sur-Seine,"94, Val-de-Marne, Île-de-France",94041
367,1,12 RUE JEAN BAPTISTE CLEMENT,94200,IVRY SUR SEINE,48.811201000000004,2.385934,12 Rue Jean-Baptiste Clément 94200 Ivry-sur-Seine,0.92,housenumber,ADRNIVX_0000000270913554,12,Rue Jean-Baptiste Clément,,94200,Ivry-sur-Seine,"94, Val-de-Marne, Île-de-France",94041
368,1,13 PLACE DES BOULEAUX,94200,IVRY SUR SEINE,48.811023999999996,2.385464,13 Place des Bouleaux 94200 Ivry-sur-Seine,0.92,housenumber,ADRNIVX_0000000270914808,13,Place des Bouleaux,,94200,Ivry-sur-Seine,"94, Val-de-Marne, Île-de-France",94041
369,1,13 RUE JEAN BAPTISTE CLEMENT,94200,IVRY SUR SEINE,48.810897,2.3860959999999998,13 Rue Jean-Baptiste Clément 94200 Ivry-sur-Seine,0.92,housenumber,ADRNIVX_0000000270913548,13,Rue Jean-Baptiste Clément,,94200,Ivry-sur-Seine,"94, Val-de-Marne, Île-de-France",94041
370,1,13 RUE LOUIS ROUSSEAU,94200,IVRY SUR SEINE,48.812833000000005,2.382694,13 Rue Louis Rousseau 94200 Ivry-sur-Seine,0.92,housenumber,ADRNIVX_0000000270908420,13,Rue Louis Rousseau,,94200,Ivry-sur-Seine,"94, Val-de-Marne, Île-de-France",94041
371,1,14 RUE LOUIS ROUSSEAU,94200,IVRY SUR SEINE,48.812557,2.383166,14 Rue Louis Rousseau 94200 Ivry-sur-Seine,0.92,housenumber,ADRNIVX_0000000270909753,14,Rue Louis Rousseau,,94200,Ivry-sur-Seine,"94, Val-de-Marne, Île-de-France",94041
372,1,15 PROMENEE DES TERRASSES,94200,IVRY SUR SEINE,48.811890999999996,2.385831,15 Promenée des Terrasses 94200 Ivry-sur-Seine,0.92,housenumber,ADRNIVX_0000000270912310,15,Promenée des Terrasses,,94200,Ivry-sur-Seine,"94, Val-de-Marne, Île-de-France",94041
373,1,15 RUE LOUIS ROUSSEAU,94200,IVRY SUR SEINE,48.812859,2.382661,15 Rue Louis Rousseau 94200 Ivry-sur-Seine,0.92,housenumber,ADRNIVX_0000000270908422,15,Rue Louis Rousseau,,94200,Ivry-sur-Seine,"94, Val-de-Marne, Île-de-France",94041
374,1,16 RUE D'ESTIENNE D'ORVES,94200,IVRY SUR SEINE,48.813275,2.381841,16 Rue d'Estienne d'Orves 94200 Ivry-sur-Seine,0.92,housenumber,ADRNIVX_0000000270907151,16,Rue d'Estienne d'Orves,,94200,Ivry-sur-Seine,"94, Val-de-Marne, Île-de-France",94041
375,1,18 RUE D'ESTIENNE D'ORVES,94200,IVRY SUR SEINE,48.813215,2.381711,18 Rue d'Estienne d'Orves 94200 Ivry-sur-Seine,0.92,housenumber,ADRNIVX_0000000270907156,18,Rue d'Estienne d'Orves,,94200,Ivry-sur-Seine,"94, Val-de-Marne, Île-de-France",94041
376,1,18 RUE LOUIS ROUSSEAU,94200,IVRY SUR SEINE,48.812905,2.382804,18 Rue Louis Rousseau 94200 Ivry-sur-Seine,0.92,housenumber,ADRNIVX_0000000270908423,18,Rue Louis Rousseau,,94200,Ivry-sur-Seine,"94, Val-de-Marne, Île-de-France",94041
377,1,2 RUE LOUIS ROUSSEAU,94200,IVRY SUR SEINE,48.811602,2.384015,2 Rue Louis Rousseau 94200 Ivry-sur-Seine,0.92,housenumber,ADRNIVX_0000000270912358,2,Rue Louis Rousseau,,94200,Ivry-sur-Seine,"94, Val-de-Marne, Île-de-France",94041
378,1,20 RUE D'ESTIENNE D'ORVES,94200,IVRY SUR SEINE,48.813153,2.381577,20 Rue d'Estienne d'Orves 94200 Ivry-sur-Seine,0.92,housenumber,ADRNIVX_0000000270907157,20,Rue d'Estienne d'Orves,,94200,Ivry-sur-Seine,"94, Val-de-Marne, Île-de-France",94041
379,1,21 RUE LOUIS ROUSSEAU,94200,IVRY SUR SEINE,48.813297999999996,2.38223,21 Rue Louis Rousseau 94200 Ivry-sur-Seine,0.92,housenumber,ADRNIVX_0000000270907153,21,Rue Louis Rousseau,,94200,Ivry-sur-Seine,"94, Val-de-Marne, Île-de-France",94041
380,1,26 RUE LOUIS ROUSSEAU,94200,IVRY SUR SEINE,48.813332,2.382344,26 Rue Louis Rousseau 94200 Ivry-sur-Seine,0.92,housenumber,ADRNIVX_0000000270907154,26,Rue Louis Rousseau,,94200,Ivry-sur-Seine,"94, Val-de-Marne, Île-de-France",94041
381,1,3 RUE GEORGES JEHENNE,94200,IVRY SUR SEINE,48.812796,2.3834150000000003,3 Rue Georges Jehenne 94200 Ivry-sur-Seine,0.92,housenumber,ADRNIVX_0000000270908417,3,Rue Georges Jehenne,,94200,Ivry-sur-Seine,"94, Val-de-Marne, Île-de-France",94041
382,1,3 RUE JEAN BAPTISTE CLEMENT,94200,IVRY SUR SEINE,48.811361,2.386888,3 Rue Jean-Baptiste Clément 94200 Ivry-sur-Seine,0.92,housenumber,ADRNIVX_0000000270912274,3,Rue Jean-Baptiste Clément,,94200,Ivry-sur-Seine,"94, Val-de-Marne, Île-de-France",94041
383,1,3 RUE LOUIS ROUSSEAU,94200,IVRY SUR SEINE,48.811779,2.383856,3 Rue Louis Rousseau 94200 Ivry-sur-Seine,0.92,housenumber,ADRNIVX_0000000270910918,3,Rue Louis Rousseau,,94200,Ivry-sur-Seine,"94, Val-de-Marne, Île-de-France",94041
384,1,4 RUE D'ESTIENNE D'ORVES,94200,IVRY SUR SEINE,48.813609,2.382578,4 Rue d'Estienne d'Orves 94200 Ivry-sur-Seine,0.92,housenumber,ADRNIVX_0000000270905861,4,Rue d'Estienne d'Orves,,94200,Ivry-sur-Seine,"94, Val-de-Marne, Île-de-France",94041
385,1,4 RUE GEORGES JEHENNE,94200,IVRY SUR SEINE,48.812864000000005,2.383338,4 Rue Georges Jehenne 94200 Ivry-sur-Seine,0.92,housenumber,ADRNIVX_0000000270908418,4,Rue Georges Jehenne,,94200,Ivry-sur-Seine,"94, Val-de-Marne, Île-de-France",94041
386,1,5 RUE JEAN BAPTISTE CLEMENT,94200,IVRY SUR SEINE,48.811337,2.386818,5 Rue Jean-Baptiste Clément 94200 Ivry-sur-Seine,0.92,housenumber,ADRNIVX_0000000270912277,5,Rue Jean-Baptiste Clément,,94200,Ivry-sur-Seine,"94, Val-de-Marne, Île-de-France",94041
387,1,5 RUE LOUIS ROUSSEAU,94200,IVRY SUR SEINE,48.812160999999996,2.383424,5 Rue Louis Rousseau 94200 Ivry-sur-Seine,0.92,housenumber,ADRNIVX_0000000270910919,5,Rue Louis Rousseau,,94200,Ivry-sur-Seine,"94, Val-de-Marne, Île-de-France",94041
388,1,5 RUE SIMON DEREURE,94200,IVRY SUR SEINE,48.810771,2.385946,5 Rue Simon Dereure 94200 Ivry-sur-Seine,0.92,housenumber,ADRNIVX_0000000270914859,5,Rue Simon Dereure,,94200,Ivry-sur-Seine,"94, Val-de-Marne, Île-de-France",94041
389,1,6 PLACE DES BOULEAUX,94200,IVRY SUR SEINE,48.811161,2.385744,6 Place des Bouleaux 94200 Ivry-sur-Seine,0.92,housenumber,ADRNIVX_0000000270913551,6,Place des Bouleaux,,94200,Ivry-sur-Seine,"94, Val-de-Marne, Île-de-France",94041
390,1,6 RUE GEORGES JEHENNE,94200,IVRY SUR SEINE,48.812781,2.383166,6 Rue Georges Jehenne 94200 Ivry-sur-Seine,0.92,housenumber,ADRNIVX_0000000270908419,6,Rue Georges Jehenne,,94200,Ivry-sur-Seine,"94, Val-de-Marne, Île-de-France",94041
391,1,6 RUE JEAN BAPTISTE CLEMENT,94200,IVRY SUR SEINE,48.811285,2.3865369999999997,6 Rue Jean-Baptiste Clément 94200 Ivry-sur-Seine,0.92,housenumber,ADRNIVX_0000000270912293,6,Rue Jean-Baptiste Clément,,94200,Ivry-sur-Seine,"94, Val-de-Marne, Île-de-France",94041
392,1,6 RUE LOUIS ROUSSEAU,94200,IVRY SUR SEINE,48.81197,2.383785,6 Rue Louis Rousseau 94200 Ivry-sur-Seine,0.92,housenumber,ADRNIVX_0000000270910920,6,Rue Louis Rousseau,,94200,Ivry-sur-Seine,"94, Val-de-Marne, Île-de-France",94041
393,1,7 PLACE DES BOULEAUX,94200,IVRY SUR SEINE,48.811192999999996,2.3855049999999998,7 Place des Bouleaux 94200 Ivry-sur-Seine,0.92,housenumber,ADRNIVX_0000000270913552,7,Place des Bouleaux,,94200,Ivry-sur-Seine,"94, Val-de-Marne, Île-de-France",94041
394,1,7 PROMENEE VENISE GOSNAT,94200,IVRY SUR SEINE,48.811508,2.385596,7 Promenée Venise Gosnat 94200 Ivry-sur-Seine,0.92,housenumber,ADRNIVX_0000000270912317,7,Promenée Venise Gosnat,,94200,Ivry-sur-Seine,"94, Val-de-Marne, Île-de-France",94041
395,1,7 RUE D'ESTIENNE D'ORVES,94200,IVRY SUR SEINE,48.813229,2.38196,7 Rue d'Estienne d'Orves 94200 Ivry-sur-Seine,0.92,housenumber,ADRNIVX_0000000270907146,7,Rue d'Estienne d'Orves,,94200,Ivry-sur-Seine,"94, Val-de-Marne, Île-de-France",94041
396,1,7 RUE LOUIS ROUSSEAU,94200,IVRY SUR SEINE,48.812404,2.383149,7 Rue Louis Rousseau 94200 Ivry-sur-Seine,0.92,housenumber,ADRNIVX_0000000270909747,7,Rue Louis Rousseau,,94200,Ivry-sur-Seine,"94, Val-de-Marne, Île-de-France",94041
397,1,8 RUE D'ESTIENNE D'ORVES,94200,IVRY SUR SEINE,48.813499,2.382333,8 Rue d'Estienne d'Orves 94200 Ivry-sur-Seine,0.92,housenumber,ADRNIVX_0000000270907147,8,Rue d'Estienne d'Orves,,94200,Ivry-sur-Seine,"94, Val-de-Marne, Île-de-France",94041
398,1,8 RUE JEAN BAPTISTE CLEMENT,94200,IVRY SUR SEINE,48.811203000000006,2.386396,8 Rue Jean-Baptiste Clément 94200 Ivry-sur-Seine,0.92,housenumber,ADRNIVX_0000000270913544,8,Rue Jean-Baptiste Clément,,94200,Ivry-sur-Seine,"94, Val-de-Marne, Île-de-France",94041
399,1,8 RUE LOUIS ROUSSEAU,94200,IVRY SUR SEINE,48.812196,2.3835349999999997,8 Rue Louis Rousseau 94200 Ivry-sur-Seine,0.92,housenumber,ADRNIVX_0000000270909749,8,Rue Louis Rousseau,,94200,Ivry-sur-Seine,"94, Val-de-Marne, Île-de-France",94041
400,1,9 RUE D'ESTIENNE D'ORVES,94200,IVRY SUR SEINE,48.813072999999996,2.3816200000000003,9 Rue d'Estienne d'Orves 94200 Ivry-sur-Seine,0.92,housenumber,ADRNIVX_0000000270907155,9,Rue d'Estienne d'Orves,,94200,Ivry-sur-Seine,"94, Val-de-Marne, Île-de-France",94041
401,1,9 RUE LOUIS ROUSSEAU,94200,IVRY SUR SEINE,48.812426,2.38313,9 Rue Louis Rousseau 94200 Ivry-sur-Seine,0.92,housenumber,ADRNIVX_0000000270909750,9,Rue Louis Rousseau,,94200,Ivry-sur-Seine,"94, Val-de-Marne, Île-de-France",94041
402,2,10 ALLÉE DU PARC,94200,IVRY SUR SEINE,48.814787,2.386896,10 Allée du Parc 94200 Ivry-sur-Seine,0.92,housenumber,ADRNIVX_0000000270904597,10,Allée du Parc,,94200,Ivry-sur-Seine,"94, Val-de-Marne, Île-de-France",94041
403,2,11 ALLÉE DU PARC,94200,IVRY SUR SEINE,48.81416,2.385818,11 Allée du Parc 94200 Ivry-sur-Seine,0.92,housenumber,ADRNIVX_0000000270904598,11,Allée du Parc,,94200,Ivry-sur-Seine,"94, Val-de-Marne, Île-de-France",94041
404,2,12 RUE DU DOCTEUR ESQUIROL,94200,IVRY SUR SEINE,48.814574,2.385399,12 Rue du Docteur Esquirol 94200 Ivry-sur-Seine,0.92,housenumber,ADRNIVX_0000000270903269,12,Rue du Docteur Esquirol,,94200,Ivry-sur-Seine,"94, Val-de-Marne, Île-de-France",94041
